AirportID,Altitude,City,Country,DST,IATA,ICAO,Longitude,Name,Latitude,Source,Timezone,TZDatabaseTimezone,Type
1,5282,Goroka,Papua New Guinea,U,GKA,AYGA,145.391998291,Goroka Airport,-6.081689834590001,OurAirports,10,Pacific/Port_Moresby,airport
2,20,Madang,Papua New Guinea,U,MAG,AYMD,145.789001465,Madang Airport,-5.20707988739,OurAirports,10,Pacific/Port_Moresby,airport
3,5388,Mount Hagen,Papua New Guinea,U,HGU,AYMH,144.29600524902344,Mount Hagen Kagamuga Airport,-5.826789855957031,OurAirports,10,Pacific/Port_Moresby,airport
4,239,Nadzab,Papua New Guinea,U,LAE,AYNZ,146.725977,Nadzab Airport,-6.569803,OurAirports,10,Pacific/Port_Moresby,airport
5,146,Port Moresby,Papua New Guinea,U,POM,AYPY,147.22000122070312,Port Moresby Jacksons International Airport,-9.443380355834961,OurAirports,10,Pacific/Port_Moresby,airport
6,19,Wewak,Papua New Guinea,U,WWK,AYWK,143.669006348,Wewak International Airport,-3.58383011818,OurAirports,10,Pacific/Port_Moresby,airport
7,112,Narssarssuaq,Greenland,E,UAK,BGBW,-45.4259986877,Narsarsuaq Airport,61.1604995728,OurAirports,-3,America/Godthab,airport
8,283,Godthaab,Greenland,E,GOH,BGGH,-51.6781005859,Godthaab / Nuuk Airport,64.19090271,OurAirports,-3,America/Godthab,airport
9,165,Sondrestrom,Greenland,E,SFJ,BGSF,-50.7116031647,Kangerlussuaq Airport,67.0122218992,OurAirports,-3,America/Godthab,airport
10,251,Thule,Greenland,E,THU,BGTL,-68.7032012939,Thule Air Base,76.5311965942,OurAirports,-4,America/Thule,airport
11,6,Akureyri,Iceland,N,AEY,BIAR,-18.07270050048828,Akureyri Airport,65.66000366210938,OurAirports,0,Atlantic/Reykjavik,airport
12,76,Egilsstadir,Iceland,N,EGS,BIEG,-14.401399612426758,Egilsstaðir Airport,65.2833023071289,OurAirports,0,Atlantic/Reykjavik,airport
13,24,Hofn,Iceland,N,HFN,BIHN,-15.2272,Hornafjörður Airport,64.295601,OurAirports,0,Atlantic/Reykjavik,airport
14,48,Husavik,Iceland,N,HZK,BIHU,-17.426001,Húsavík Airport,65.952301,OurAirports,0,Atlantic/Reykjavik,airport
15,8,Isafjordur,Iceland,N,IFJ,BIIS,-23.135299682617188,Ísafjörður Airport,66.05809783935547,OurAirports,0,Atlantic/Reykjavik,airport
16,171,Keflavik,Iceland,N,KEF,BIKF,-22.605600357056,Keflavik International Airport,63.985000610352,OurAirports,0,Atlantic/Reykjavik,airport
17,11,Patreksfjordur,Iceland,N,PFJ,BIPA,-23.965,Patreksfjörður Airport,65.555801,OurAirports,0,Atlantic/Reykjavik,airport
18,48,Reykjavik,Iceland,N,RKV,BIRK,-21.9405994415,Reykjavik Airport,64.1299972534,OurAirports,0,Atlantic/Reykjavik,airport
19,10,Siglufjordur,Iceland,N,SIJ,BISI,-18.9167,Siglufjörður Airport,66.133301,OurAirports,0,Atlantic/Reykjavik,airport
20,326,Vestmannaeyjar,Iceland,N,VEY,BIVM,-20.278900146484375,Vestmannaeyjar Airport,63.42430114746094,OurAirports,0,Atlantic/Reykjavik,airport
21,630,Sault Sainte Marie,Canada,A,YAM,CYAM,-84.5093994140625,Sault Ste Marie Airport,46.48500061035156,OurAirports,-5,America/Toronto,airport
22,760,Winnipeg,Canada,A,\N,CYAV,-97.03250122070001,Winnipeg / St. Andrews Airport,50.0564002991,OurAirports,-6,America/Winnipeg,airport
23,144,Halifax,Canada,A,\N,CYAW,-63.499401,Halifax / CFB Shearwater Heliport,44.639702,OurAirports,-4,America/Halifax,airport
24,108,St. Anthony,Canada,A,YAY,CYAY,-56.083099365200006,St. Anthony Airport,51.3918991089,OurAirports,-3.5,America/St_Johns,airport
25,80,Tofino,Canada,A,YAZ,CYAZ,-125.775583,Tofino / Long Beach Airport,49.079833,OurAirports,-8,America/Vancouver,airport
26,56,Pelly Bay,Canada,A,YBB,CYBB,-89.808098,Kugaaruk Airport,68.534401,OurAirports,-7,America/Edmonton,airport
27,71,Baie Comeau,Canada,A,YBC,CYBC,-68.20439910888672,Baie Comeau Airport,49.13249969482422,OurAirports,-5,America/Toronto,airport
28,522,Bagotville,Canada,A,YBG,CYBG,-70.99639892578125,CFB Bagotville,48.33060073852539,OurAirports,-5,America/Toronto,airport
29,59,Baker Lake,Canada,A,YBK,CYBK,-96.077796936,Baker Lake Airport,64.29889678960001,OurAirports,-6,America/Winnipeg,airport
30,346,Campbell River,Canada,A,YBL,CYBL,-125.27100372314453,Campbell River Airport,49.950801849365234,OurAirports,-8,America/Vancouver,airport
31,1343,Brandon,Canada,A,YBR,CYBR,-99.951897,Brandon Municipal Airport,49.91,OurAirports,-6,America/Winnipeg,airport
32,90,Cambridge Bay,Canada,A,YCB,CYCB,-105.138000488,Cambridge Bay Airport,69.1081008911,OurAirports,-7,America/Edmonton,airport
33,92,Nanaimo,Canada,A,YCD,CYCD,-123.869862556,Nanaimo Airport,49.054970224899996,OurAirports,-8,America/Vancouver,airport
34,1624,Castlegar,Canada,A,YCG,CYCG,-117.632003784,Castlegar/West Kootenay Regional Airport,49.2963981628,OurAirports,-8,America/Vancouver,airport
35,108,Chatham,Canada,A,YCH,CYCH,-65.449203,Miramichi Airport,47.007801,OurAirports,-4,America/Halifax,airport
36,132,Charlo,Canada,A,YCL,CYCL,-66.330299,Charlo Airport,47.990799,OurAirports,-4,America/Halifax,airport
37,74,Coppermine,Canada,A,YCO,CYCO,-115.143997,Kugluktuk Airport,67.816704,OurAirports,-7,America/Edmonton,airport
38,2595,Coronation,Canada,A,YCT,CYCT,-111.444999695,Coronation Airport,52.0750007629,OurAirports,-7,America/Edmonton,airport
39,32,Chilliwack,Canada,A,YCW,CYCW,-121.939002991,Chilliwack Airport,49.1528015137,OurAirports,-8,America/Vancouver,airport
40,87,Clyde River,Canada,A,YCY,CYCY,-68.5167007446,Clyde River Airport,70.4860992432,OurAirports,-5,America/Toronto,airport
41,210,Coral Harbour,Canada,A,YZS,CYZS,-83.3593978882,Coral Harbour Airport,64.1932983398,OurAirports,-5,America/Coral_Harbour,airport
42,1215,Dawson,Canada,A,YDA,CYDA,-139.1280059814453,Dawson City Airport,64.04309844970703,OurAirports,-8,America/Vancouver,airport
43,2647,Burwash,Canada,A,YDB,CYDB,-139.04100036621094,Burwash Airport,61.37110137939453,OurAirports,-8,America/Vancouver,airport
44,2298,Princeton,Canada,A,\N,CYDC,-120.511001587,Princeton Airport,49.4681015015,OurAirports,-8,America/Vancouver,airport
45,72,Deer Lake,Canada,A,YDF,CYDF,-57.39139938354492,Deer Lake Airport,49.21080017089844,OurAirports,-3.5,America/St_Johns,airport
46,2600,Dease Lake,Canada,A,YDL,CYDL,-130.031997681,Dease Lake Airport,58.4221992493,OurAirports,-8,America/Vancouver,airport
47,999,Dauphin,Canada,A,YDN,CYDN,-100.052001953125,Dauphin Barker Airport,51.100799560546875,OurAirports,-6,America/Winnipeg,airport
48,2148,Dawson Creek,Canada,A,YDQ,CYDQ,-120.18299865722656,Dawson Creek Airport,55.7422981262207,OurAirports,-7,America/Dawson_Creek,airport
49,2373,Edmonton,Canada,A,YEG,CYEG,-113.580001831,Edmonton International Airport,53.309700012200004,OurAirports,-7,America/Edmonton,airport
50,32,Eskimo Point,Canada,A,YEK,CYEK,-94.07080078119999,Arviat Airport,61.0942001343,OurAirports,-6,America/Winnipeg,airport
51,1905,Estevan,Canada,N,YEN,CYEN,-102.966003418,Estevan Airport,49.2103004456,OurAirports,-6,America/Regina,airport
52,3043,Edson,Canada,A,YET,CYET,-116.464996338,Edson Airport,53.578899383499994,OurAirports,-7,America/Edmonton,airport
53,256,Eureka,Canada,A,YEU,CYEU,-85.814201355,Eureka Airport,79.9946975708,OurAirports,-6,America/Winnipeg,airport
54,224,Inuvik,Canada,A,YEV,CYEV,-133.483001709,Inuvik Mike Zubko Airport,68.30419921880001,OurAirports,-7,America/Edmonton,airport
55,110,Iqaluit,Canada,A,YFB,CYFB,-68.555801,Iqaluit Airport,63.756402,OurAirports,-5,America/Toronto,airport
56,68,Fredericton,Canada,A,YFC,CYFC,-66.53720092773438,Fredericton Airport,45.868900299072266,OurAirports,-4,America/Halifax,airport
57,293,Forestville,Canada,A,YFE,CYFE,-69.09719848632812,Forestville Airport,48.74610137939453,OurAirports,-5,America/Toronto,airport
58,997,Flin Flon,Canada,A,YFO,CYFO,-101.68199920654297,Flin Flon Airport,54.6781005859375,OurAirports,-6,America/Winnipeg,airport
59,526,Fort Resolution,Canada,A,YFR,CYFR,-113.690002441,Fort Resolution Airport,61.1808013916,OurAirports,-7,America/Edmonton,airport
60,555,Fort Simpson,Canada,A,YFS,CYFS,-121.23699951171875,Fort Simpson Airport,61.76020050048828,OurAirports,-7,America/Edmonton,airport
61,305,Kingston,Canada,A,YGK,CYGK,-76.5969009399414,Kingston Norman Rogers Airport,44.22529983520508,OurAirports,-5,America/Toronto,airport
62,639,La Grande Riviere,Canada,A,YGL,CYGL,-77.7042007446289,La Grande Rivière Airport,53.625301361083984,OurAirports,-5,America/Toronto,airport
63,112,Gaspe,Canada,A,YGP,CYGP,-64.4785995483,Gaspé (Michel-Pouliot) Airport,48.7752990723,OurAirports,-5,America/Toronto,airport
64,1144,Geraldton,Canada,A,YGQ,CYGQ,-86.93939971923828,Geraldton Greenstone Regional Airport,49.77830123901367,OurAirports,-5,America/Toronto,airport
65,35,Iles De La Madeleine,Canada,A,YGR,CYGR,-61.778099060058594,Îles-de-la-Madeleine Airport,47.42470169067383,OurAirports,-5,America/Toronto,airport
66,1175,Hudson Bay,Canada,N,YHB,CYHB,-102.310997009,Hudson Bay Airport,52.8166999817,OurAirports,-6,America/Regina,airport
67,1354,Dryden,Canada,A,YHD,CYHD,-92.744202,Dryden Regional Airport,49.831699,OurAirports,-6,America/Winnipeg,airport
68,117,Holman Island,Canada,A,YHI,CYHI,-117.80599975585938,Ulukhaktok Holman Airport,70.76280212402344,OurAirports,-7,America/Edmonton,airport
69,152,Gjoa Haven,Canada,A,YHK,CYHK,-95.84970092770001,Gjoa Haven Airport,68.635597229,OurAirports,-7,America/Edmonton,airport
70,780,Hamilton,Canada,A,YHM,CYHM,-79.93499755859999,John C. Munro Hamilton International Airport,43.173599243199995,OurAirports,-5,America/Toronto,airport
71,90,Montreal,Canada,A,YHU,CYHU,-73.4169006348,Montréal / Saint-Hubert Airport,45.5175018311,OurAirports,-5,America/Toronto,airport
72,541,Hay River,Canada,A,YHY,CYHY,-115.782997131,Hay River / Merlyn Carter Airport,60.8396987915,OurAirports,-7,America/Edmonton,airport
73,477,Halifax,Canada,A,YHZ,CYHZ,-63.5085983276,Halifax / Stanfield International Airport,44.8807983398,OurAirports,-4,America/Halifax,airport
74,1408,Atikokan,Canada,A,YIB,CYIB,-91.6386032104,Atikokan Municipal Airport,48.7738990784,OurAirports,-5,America/Coral_Harbour,airport
75,181,Pond Inlet,Canada,A,YIO,CYIO,-77.9666976929,Pond Inlet Airport,72.6832962036,OurAirports,-5,America/Toronto,airport
76,136,St. Jean,Canada,A,YJN,CYJN,-73.28109741210938,St Jean Airport,45.29439926147461,OurAirports,-5,America/Toronto,airport
77,84,Stephenville,Canada,A,YJT,CYJT,-58.54999923706055,Stephenville Airport,48.5442008972168,OurAirports,-3.5,America/St_Johns,airport
78,1133,Kamloops,Canada,A,YKA,CYKA,-120.444000244,Kamloops Airport,50.7022018433,OurAirports,-8,America/Vancouver,airport
79,1055,Waterloo,Canada,A,YKF,CYKF,-80.3786010742,Waterloo Airport,43.460800170899994,OurAirports,-5,America/Toronto,airport
80,1709,Schefferville,Canada,A,YKL,CYKL,-66.8052978515625,Schefferville Airport,54.805301666259766,OurAirports,-5,America/Toronto,airport
81,2277,Kindersley,Canada,N,YKY,CYKY,-109.180999756,Kindersley Airport,51.5175018311,OurAirports,-6,America/Regina,airport
82,650,Toronto,Canada,A,YKZ,CYKZ,-79.37000274658203,Buttonville Municipal Airport,43.86220169067383,OurAirports,-5,America/Toronto,airport
83,1470,Chapleau,Canada,A,YLD,CYLD,-83.3467025756836,Chapleau Airport,47.81999969482422,OurAirports,-5,America/Toronto,airport
84,1576,Meadow Lake,Canada,N,YLJ,CYLJ,-108.52300262451172,Meadow Lake Airport,54.125301361083984,OurAirports,-6,America/Regina,airport
85,2193,Lloydminster,Canada,A,YLL,CYLL,-110.072998046875,Lloydminster Airport,53.309200286865234,OurAirports,-7,America/Edmonton,airport
86,100,Alert,Canada,A,YLT,CYLT,-62.2806015015,Alert Airport,82.51779937740001,OurAirports,-5,America/Toronto,airport
87,1421,Kelowna,Canada,A,YLW,CYLW,-119.377998352,Kelowna International Airport,49.9561004639,OurAirports,-8,America/Vancouver,airport
88,1653,Mayo,Canada,A,YMA,CYMA,-135.8679962158203,Mayo Airport,63.61640167236328,OurAirports,-8,America/Vancouver,airport
89,1892,Moose Jaw,Canada,N,YMJ,CYMJ,-105.55899810791016,Moose Jaw Air Vice Marshal C. M. McEwen Airport,50.330299377441406,OurAirports,-6,America/Regina,airport
90,1211,Fort Mcmurray,Canada,A,YMM,CYMM,-111.222000122,Fort McMurray Airport,56.653301239,OurAirports,-7,America/Edmonton,airport
91,30,Moosonee,Canada,A,YMO,CYMO,-80.60780334472656,Moosonee Airport,51.291099548339844,OurAirports,-5,America/Toronto,airport
92,656,Maniwaki,Canada,A,YMW,CYMW,-75.9906005859,Maniwaki Airport,46.2728004456,OurAirports,-5,America/Toronto,airport
93,270,Montreal,Canada,A,YMX,CYMX,-74.038696,Montreal International (Mirabel) Airport,45.679501,OurAirports,-5,America/Toronto,airport
94,39,Natashquan,Canada,A,YNA,CYNA,-61.78919982910156,Natashquan Airport,50.189998626708984,OurAirports,-5,America/Toronto,airport
95,211,Gatineau,Canada,A,YND,CYND,-75.5635986328,Ottawa / Gatineau Airport,45.521701812699995,OurAirports,-5,America/Toronto,airport
96,918,Matagami,Canada,A,YNM,CYNM,-77.80280303955078,Matagami Airport,49.76169967651367,OurAirports,-5,America/Toronto,airport
97,824,Old Crow,Canada,A,YOC,CYOC,-139.83900451660156,Old Crow Airport,67.57060241699219,OurAirports,-8,America/Vancouver,airport
98,1775,Cold Lake,Canada,A,YOD,CYOD,-110.27899932861328,CFB Cold Lake,54.404998779296875,OurAirports,-7,America/Edmonton,airport
99,1110,High Level,Canada,A,YOJ,CYOJ,-117.16500091552734,High Level Airport,58.62139892578125,OurAirports,-7,America/Edmonton,airport
100,374,Ottawa,Canada,A,YOW,CYOW,-75.66919708251953,Ottawa Macdonald-Cartier International Airport,45.3224983215332,OurAirports,-5,America/Toronto,airport
101,1405,Prince Albert,Canada,N,YPA,CYPA,-105.672996521,Prince Albert Glass Field,53.214199066199996,OurAirports,-6,America/Regina,airport
102,1873,Peace River,Canada,A,YPE,CYPE,-117.446999,Peace River Airport,56.226898,OurAirports,-7,America/Edmonton,airport
103,885,Portage-la-prairie,Canada,A,YPG,CYPG,-98.273817,Southport Airport,49.903099,OurAirports,-6,America/Winnipeg,airport
104,11,Pitt Meadows,Canada,A,\N,CYPK,-122.70999908447266,Pitt Meadows Airport,49.21609878540039,OurAirports,-8,America/Vancouver,airport
105,1267,Pickle Lake,Canada,A,YPL,CYPL,-90.21420288085938,Pickle Lake Airport,51.4463996887207,OurAirports,-5,America/Coral_Harbour,airport
106,167,Port Menier,Canada,A,YPN,CYPN,-64.2885971069336,Port Menier Airport,49.83639907836914,OurAirports,-5,America/Toronto,airport
107,628,Peterborough,Canada,A,YPQ,CYPQ,-78.36329650878906,Peterborough Airport,44.22999954223633,OurAirports,-5,America/Toronto,airport
108,116,Prince Pupert,Canada,A,YPR,CYPR,-130.445007324,Prince Rupert Airport,54.286098480199996,OurAirports,-8,America/Vancouver,airport
109,761,Fort Chipewyan,Canada,A,YPY,CYPY,-111.11699676513672,Fort Chipewyan Airport,58.7672004699707,OurAirports,-7,America/Edmonton,airport
110,925,Muskoka,Canada,A,YQA,CYQA,-79.30329895019531,Muskoka Airport,44.974700927734375,OurAirports,-5,America/Toronto,airport
111,244,Quebec,Canada,A,YQB,CYQB,-71.393303,Quebec Jean Lesage International Airport,46.7911,OurAirports,-5,America/Toronto,airport
112,2968,Red Deer Industrial,Canada,A,YQF,CYQF,-113.89399719238281,Red Deer Regional Airport,52.18220138549805,OurAirports,-7,America/Edmonton,airport
113,622,Windsor,Canada,A,YQG,CYQG,-82.95559692382812,Windsor Airport,42.27560043334961,OurAirports,-5,America/Toronto,airport
114,2255,Watson Lake,Canada,A,YQH,CYQH,-128.82200622558594,Watson Lake Airport,60.11640167236328,OurAirports,-8,America/Vancouver,airport
115,1332,Kenora,Canada,A,YQK,CYQK,-94.36309814453125,Kenora Airport,49.788299560546875,OurAirports,-6,America/Winnipeg,airport
116,3048,Lethbridge,Canada,A,YQL,CYQL,-112.800003052,Lethbridge County Airport,49.6302986145,OurAirports,-7,America/Edmonton,airport
117,232,Moncton,Canada,A,YQM,CYQM,-64.67859649658203,Greater Moncton International Airport,46.11220169067383,OurAirports,-4,America/Halifax,airport
119,84,Comox,Canada,A,YQQ,CYQQ,-124.88700103759766,Comox Airport,49.71080017089844,OurAirports,-8,America/Vancouver,airport
120,1894,Regina,Canada,N,YQR,CYQR,-104.66600036621094,Regina International Airport,50.43190002441406,OurAirports,-6,America/Regina,airport
121,653,Thunder Bay,Canada,A,YQT,CYQT,-89.32389831542969,Thunder Bay Airport,48.37189865112305,OurAirports,-5,America/Toronto,airport
122,2195,Grande Prairie,Canada,A,YQU,CYQU,-118.885002136,Grande Prairie Airport,55.1796989441,OurAirports,-7,America/Edmonton,airport
123,1635,Yorkton,Canada,N,YQV,CYQV,-102.46199798583984,Yorkton Municipal Airport,51.26470184326172,OurAirports,-6,America/Regina,airport
124,1799,North Battleford,Canada,N,YQW,CYQW,-108.24400329589844,North Battleford Airport,52.76919937133789,OurAirports,-6,America/Regina,airport
125,496,Gander,Canada,A,YQX,CYQX,-54.56809997558594,Gander International Airport,48.9369010925293,OurAirports,-3.5,America/St_Johns,airport
126,203,Sydney,Canada,A,YQY,CYQY,-60.047798,Sydney / J.A. Douglas McCurdy Airport,46.1614,OurAirports,-4,America/Halifax,airport
127,1789,Quesnel,Canada,A,YQZ,CYQZ,-122.51000213623047,Quesnel Airport,53.026100158691406,OurAirports,-8,America/Vancouver,airport
128,215,Resolute,Canada,A,YRB,CYRB,-94.9693984985,Resolute Bay Airport,74.7169036865,OurAirports,-6,America/Winnipeg,airport
129,427,Riviere Du Loup,Canada,A,YRI,CYRI,-69.58470153808594,Rivière-du-Loup Airport,47.764400482177734,OurAirports,-5,America/Toronto,airport
130,586,Roberval,Canada,A,YRJ,CYRJ,-72.2656021118164,Roberval Airport,48.52000045776367,OurAirports,-5,America/Toronto,airport
131,3244,Rocky Mountain House,Canada,A,YRM,CYRM,-114.903999329,Rocky Mountain House Airport,52.4296989441,OurAirports,-7,America/Edmonton,airport
132,94,Rankin Inlet,Canada,A,YRT,CYRT,-92.1157989502,Rankin Inlet Airport,62.8114013672,OurAirports,-6,America/Winnipeg,airport
133,1141,Sudbury,Canada,A,YSB,CYSB,-80.79889678955078,Sudbury Airport,46.625,OurAirports,-5,America/Toronto,airport
134,792,Sherbrooke,Canada,A,YSC,CYSC,-71.69139862060547,Sherbrooke Airport,45.4385986328125,OurAirports,-5,America/Toronto,airport
135,357,St. John,Canada,A,YSJ,CYSJ,-65.89029693603516,Saint John Airport,45.31610107421875,OurAirports,-4,America/Halifax,airport
136,671,Fort Smith,Canada,A,YSM,CYSM,-111.96199798583984,Fort Smith Airport,60.020301818847656,OurAirports,-7,America/Edmonton,airport
137,2106,Nanisivik,Canada,A,YSR,CYSR,-84.613602,Nanisivik Airport,72.982201,OurAirports,-5,America/Toronto,airport
138,56,Summerside,Canada,A,YSU,CYSU,-63.83359909057617,Summerside Airport,46.44060134887695,OurAirports,-4,America/Halifax,airport
139,282,Sachs Harbour,Canada,A,YSY,CYSY,-125.242996216,Sachs Harbour (David Nasogaluak Jr. Saaryuaq) Airport,71.9938964844,OurAirports,-7,America/Edmonton,airport
140,164,Cape Dorset,Canada,A,YTE,CYTE,-76.5267028809,Cape Dorset Airport,64.2300033569,OurAirports,-5,America/Toronto,airport
141,729,Thompson,Canada,A,YTH,CYTH,-97.86419677734375,Thompson Airport,55.80110168457031,OurAirports,-6,America/Winnipeg,airport
142,283,Trenton,Canada,A,YTR,CYTR,-77.5280990600586,CFB Trenton,44.118900299072266,OurAirports,-5,America/Toronto,airport
143,967,Timmins,Canada,A,YTS,CYTS,-81.376701355,Timmins/Victor M. Power,48.569698333699996,OurAirports,-5,America/Toronto,airport
144,252,Toronto,Canada,A,YTZ,CYTZ,-79.396202,Billy Bishop Toronto City Centre Airport,43.627499,OurAirports,-5,America/Toronto,airport
145,15,Tuktoyaktuk,Canada,A,YUB,CYUB,-133.0260009765625,Tuktoyaktuk Airport,69.43329620361328,OurAirports,-7,America/Edmonton,airport
146,118,Montreal,Canada,A,YUL,CYUL,-73.7407989502,Montreal / Pierre Elliott Trudeau International Airport,45.4706001282,OurAirports,-5,America/Toronto,airport
147,80,Repulse Bay,Canada,A,YUT,CYUT,-86.22470092770001,Repulse Bay Airport,66.5214004517,OurAirports,-6,America/Winnipeg,airport
148,30,Hall Beach,Canada,A,YUX,CYUX,-81.2425,Hall Beach Airport,68.77610015869999,OurAirports,-5,America/Toronto,airport
149,988,Rouyn,Canada,A,YUY,CYUY,-78.83560180664062,Rouyn Noranda Airport,48.20610046386719,OurAirports,-5,America/Toronto,airport
150,1242,La Ronge,Canada,N,YVC,CYVC,-105.262001038,La Ronge Airport,55.151401519800004,OurAirports,-6,America/Regina,airport
151,2025,Vermillion,Canada,A,YVG,CYVG,-110.823997498,Vermilion Airport,53.355800628699996,OurAirports,-7,America/Edmonton,airport
152,21,Broughton Island,Canada,A,YVM,CYVM,-64.03140258789999,Qikiqtarjuaq Airport,67.5457992554,OurAirports,-5,America/Toronto,airport
153,1107,Val D'or,Canada,A,YVO,CYVO,-77.7827987671,Val-d'Or Airport,48.0532989502,OurAirports,-5,America/Toronto,airport
154,129,Quujjuaq,Canada,A,YVP,CYVP,-68.4269027709961,Kuujjuaq Airport,58.096099853515625,OurAirports,-5,America/Toronto,airport
155,238,Norman Wells,Canada,A,YVQ,CYVQ,-126.7979965209961,Norman Wells Airport,65.28160095214844,OurAirports,-7,America/Edmonton,airport
156,14,Vancouver,Canada,A,YVR,CYVR,-123.183998108,Vancouver International Airport,49.193901062,OurAirports,-8,America/Vancouver,airport
157,1423,Buffalo Narrows,Canada,N,YVT,CYVT,-108.417999268,Buffalo Narrows Airport,55.8418998718,OurAirports,-6,America/Regina,airport
158,729,Wiarton,Canada,A,YVV,CYVV,-81.107201,Wiarton Airport,44.7458,OurAirports,-5,America/Toronto,airport
159,427,Petawawa,Canada,A,YWA,CYWA,-77.31919860839844,Petawawa Airport,45.95220184326172,OurAirports,-5,America/Toronto,airport
160,783,Winnipeg,Canada,A,YWG,CYWG,-97.2398986816,Winnipeg / James Armstrong Richardson International Airport,49.909999847399995,OurAirports,-6,America/Winnipeg,airport
161,1808,Wabush,Canada,A,YWK,CYWK,-66.8644027709961,Wabush Airport,52.92190170288086,OurAirports,-4,America/Halifax,airport
162,3085,Williams Lake,Canada,A,YWL,CYWL,-122.054000854,Williams Lake Airport,52.1831016541,OurAirports,-8,America/Vancouver,airport
163,489,Wrigley,Canada,A,YWY,CYWY,-123.43699645996094,Wrigley Airport,63.20940017700195,OurAirports,-7,America/Edmonton,airport
164,3082,Cranbrook,Canada,A,YXC,CYXC,-115.78199768066,Cranbrook/Canadian Rockies International Airport,49.610801696777,OurAirports,-7,America/Edmonton,airport
165,2202,Edmonton,Canada,A,YXD,CYXD,-113.521003723,Edmonton City Centre (Blatchford Field) Airport,53.5724983215,OurAirports,-7,America/Edmonton,airport
166,1653,Saskatoon,Canada,N,YXE,CYXE,-106.69999694824219,Saskatoon John G. Diefenbaker International Airport,52.170799255371094,OurAirports,-6,America/Regina,airport
167,2352,Medicine Hat,Canada,A,YXH,CYXH,-110.72100067138672,Medicine Hat Airport,50.01890182495117,OurAirports,-7,America/Edmonton,airport
168,2280,Fort Saint John,Canada,A,YXJ,CYXJ,-120.73999786376953,Fort St John Airport,56.23809814453125,OurAirports,-7,America/Dawson_Creek,airport
169,1258,Sioux Lookout,Canada,A,YXL,CYXL,-91.9052963256836,Sioux Lookout Airport,50.11389923095703,OurAirports,-6,America/Winnipeg,airport
170,75,Pangnirtung,Canada,A,YXP,CYXP,-65.71360015869999,Pangnirtung Airport,66.1449966431,OurAirports,-5,America/Toronto,airport
171,800,Earlton,Canada,A,YXR,CYXR,-79.8473453522,Earlton (Timiskaming Regional) Airport,47.697400654599996,OurAirports,-5,America/Toronto,airport
172,2267,Prince George,Canada,A,YXS,CYXS,-122.679000854,Prince George Airport,53.8894004822,OurAirports,-8,America/Vancouver,airport
173,713,Terrace,Canada,A,YXT,CYXT,-128.576009,Northwest Regional Airport Terrace-Kitimat,54.468498,OurAirports,-8,America/Vancouver,airport
174,912,London,Canada,A,YXU,CYXU,-81.1539,London Airport,43.035599,OurAirports,-5,America/Toronto,airport
175,195,Abbotsford,Canada,A,YXX,CYXX,-122.36100006103516,Abbotsford Airport,49.025299072265625,OurAirports,-8,America/Vancouver,airport
176,2317,Whitehorse,Canada,A,YXY,CYXY,-135.067001343,Whitehorse / Erik Nielsen International Airport,60.7095985413,OurAirports,-8,America/Vancouver,airport
177,1215,North Bay,Canada,A,YYB,CYYB,-79.422798,North Bay Jack Garland Airport,46.363602,OurAirports,-5,America/Toronto,airport
178,3557,Calgary,Canada,A,YYC,CYYC,-114.019996643,Calgary International Airport,51.113899231,OurAirports,-7,America/Edmonton,airport
179,1712,Smithers,Canada,A,YYD,CYYD,-127.18299865722656,Smithers Airport,54.82469940185547,OurAirports,-8,America/Vancouver,airport
180,1253,Fort Nelson,Canada,A,YYE,CYYE,-122.597000122,Fort Nelson Airport,58.8363990784,OurAirports,-8,America/Vancouver,airport
181,1129,Penticton,Canada,A,YYF,CYYF,-119.60199737548828,Penticton Airport,49.46310043334961,OurAirports,-8,America/Vancouver,airport
182,160,Charlottetown,Canada,A,YYG,CYYG,-63.12110137939453,Charlottetown Airport,46.290000915527344,OurAirports,-4,America/Halifax,airport
183,92,Spence Bay,Canada,A,YYH,CYYH,-93.5766983032,Taloyoak Airport,69.5466995239,OurAirports,-7,America/Edmonton,airport
184,63,Victoria,Canada,A,YYJ,CYYJ,-123.426002502,Victoria International Airport,48.646900177,OurAirports,-8,America/Vancouver,airport
185,1170,Lynn Lake,Canada,A,YYL,CYYL,-101.07599639892578,Lynn Lake Airport,56.86389923095703,OurAirports,-6,America/Winnipeg,airport
186,2680,Swift Current,Canada,N,YYN,CYYN,-107.691001892,Swift Current Airport,50.291900634799994,OurAirports,-6,America/Regina,airport
187,94,Churchill,Canada,A,YYQ,CYYQ,-94.06500244140625,Churchill Airport,58.739200592041016,OurAirports,-6,America/Winnipeg,airport
188,160,Goose Bay,Canada,A,YYR,CYYR,-60.4258003235,Goose Bay Airport,53.3191986084,OurAirports,-4,America/Halifax,airport
189,461,St. John's,Canada,A,YYT,CYYT,-52.7518997192,St. John's International Airport,47.618598938,OurAirports,-3.5,America/St_Johns,airport
190,743,Kapuskasing,Canada,A,YYU,CYYU,-82.46749877929688,Kapuskasing Airport,49.41389846801758,OurAirports,-5,America/Toronto,airport
191,1058,Armstrong,Canada,A,YYW,CYYW,-88.90969848632812,Armstrong Airport,50.29029846191406,OurAirports,-5,America/Toronto,airport
192,172,Mont Joli,Canada,A,YYY,CYYY,-68.20809936523438,Mont Joli Airport,48.60860061645508,OurAirports,-5,America/Toronto,airport
193,569,Toronto,Canada,A,YYZ,CYYZ,-79.63059997559999,Lester B. Pearson International Airport,43.6772003174,OurAirports,-5,America/Toronto,airport
194,652,Toronto,Canada,A,YZD,CYZD,-79.4655990600586,Downsview Airport,43.74250030517578,OurAirports,-5,America/Toronto,airport
195,635,Gore Bay,Canada,A,YZE,CYZE,-82.56780242919922,Gore Bay Manitoulin Airport,45.88529968261719,OurAirports,-5,America/Toronto,airport
196,675,Yellowknife,Canada,A,YZF,CYZF,-114.44000244140625,Yellowknife Airport,62.462799072265625,OurAirports,-7,America/Edmonton,airport
197,1912,Slave Lake,Canada,A,YZH,CYZH,-114.777000427,Slave Lake Airport,55.2930984497,OurAirports,-7,America/Edmonton,airport
198,21,Sandspit,Canada,A,YZP,CYZP,-131.813995361,Sandspit Airport,53.25429916379999,OurAirports,-8,America/Vancouver,airport
199,594,Sarnia,Canada,A,YZR,CYZR,-82.30889892578125,Chris Hadfield Airport,42.9994010925293,OurAirports,-5,America/Toronto,airport
200,71,Port Hardy,Canada,A,YZT,CYZT,-127.36699676513672,Port Hardy Airport,50.680599212646484,OurAirports,-8,America/Vancouver,airport
201,2567,Whitecourt,Canada,A,YZU,CYZU,-115.78700256347656,Whitecourt Airport,54.14390182495117,OurAirports,-7,America/Edmonton,airport
202,180,Sept-iles,Canada,A,YZV,CYZV,-66.2656021118164,Sept-Îles Airport,50.22330093383789,OurAirports,-5,America/Toronto,airport
203,2313,Teslin,Canada,A,YZW,CYZW,-132.7429962158203,Teslin Airport,60.17279815673828,OurAirports,-8,America/Vancouver,airport
204,92,Greenwood,Canada,A,YZX,CYZX,-64.91690063476562,CFB Greenwood,44.98440170288086,OurAirports,-4,America/Halifax,airport
205,2351,Faro,Canada,A,ZFA,CZFA,-133.37600708007812,Faro Airport,62.20750045776367,OurAirports,-8,America/Vancouver,airport
206,116,Fort Mcpherson,Canada,A,ZFM,CZFM,-134.86099243164062,Fort Mcpherson Airport,67.40750122070312,OurAirports,-7,America/Edmonton,airport
207,535,Blida,Algeria,N,QLD,DAAB,2.8141698837280273,Blida Airport,36.50360107421875,OurAirports,1,Africa/Algiers,airport
208,1506,Bou Saada,Algeria,N,BUJ,DAAD,4.206389904022217,Bou Saada Airport,35.33250045776367,OurAirports,1,Africa/Algiers,airport
209,20,Bejaja,Algeria,N,BJA,DAAE,5.0699200630200005,Soummam Airport,36.7120018005,OurAirports,1,Africa/Algiers,airport
210,82,Algier,Algeria,N,ALG,DAAG,3.215409994125366,Houari Boumediene Airport,36.691001892089844,OurAirports,1,Africa/Algiers,airport
211,3176,Djanet,Algeria,N,DJG,DAAJ,9.45244,Djanet Inedbirene Airport,24.292801,OurAirports,1,Africa/Algiers,airport
212,335,Boufarik,Algeria,N,\N,DAAK,2.87611,Boufarik Airport,36.545799,OurAirports,1,Africa/Algiers,airport
213,955,Reggan,Algeria,N,\N,DAAN,0.285647,Reggane Airport,26.7101,OurAirports,1,Africa/Algiers,airport
214,1778,Illizi,Algeria,N,VVZ,DAAP,8.62265014648,Illizi Takhamalt Airport,26.7234992981,OurAirports,1,Africa/Algiers,airport
215,2132,Ain Oussera,Algeria,N,\N,DAAQ,2.8787100315093994,Ain Oussera Airport,35.52539825439453,OurAirports,1,Africa/Algiers,airport
216,4518,Tamanrasset,Algeria,N,TMR,DAAT,5.45107984543,Aguenar – Hadj Bey Akhamok Airport,22.8115005493,OurAirports,1,Africa/Algiers,airport
217,36,Jijel,Algeria,N,GJL,DAAV,5.87361001968,Jijel Ferhat Abbas Airport,36.7951011658,OurAirports,1,Africa/Algiers,airport
218,3855,Mecheria,Algeria,N,MZW,DAAY,-0.242353007197,Mecheria Airport,33.535900116,OurAirports,1,Africa/Algiers,airport
219,282,Relizane,Algeria,N,\N,DAAZ,0.626272,Relizane Airport,35.752201,OurAirports,1,Africa/Algiers,airport
220,16,Annaba,Algeria,N,AAE,DABB,7.809174,Rabah Bitat Airport,36.822201,OurAirports,1,Africa/Algiers,airport
221,2265,Constantine,Algeria,N,CZL,DABC,6.620389938354492,Mohamed Boudiaf International Airport,36.2760009765625,OurAirports,1,Africa/Algiers,airport
222,2661,Tebessa,Algeria,N,TEE,DABS,8.12071990967,Cheikh Larbi Tébessi Airport,35.4315986633,OurAirports,1,Africa/Algiers,airport
224,2540,Tilrempt,Algeria,N,HRM,DAFH,3.311539888381958,Hassi R'Mel Airport,32.93040084838867,OurAirports,1,Africa/Algiers,airport
225,3245,Tiaret,Algeria,N,TID,DAOB,1.46315002441,Bou Chekif Airport,35.3410987854,OurAirports,1,Africa/Algiers,airport
226,187,Bou Sfer,Algeria,N,\N,DAOE,-0.8053889870643616,Bou Sfer Airport,35.73540115356445,OurAirports,1,Africa/Algiers,airport
227,1453,Tindouf,Algeria,N,TIN,DAOF,-8.167099952700001,Tindouf Airport,27.7003993988,OurAirports,1,Africa/Algiers,airport
228,463,Ech-cheliff,Algeria,N,CFK,DAOI,1.33176994324,Ech Cheliff Airport,36.2126998901,OurAirports,1,Africa/Algiers,airport
229,367,Oran,Algeria,N,TAF,DAOL,-0.5322780013084412,Tafaraoui Airport,35.54240036010742,OurAirports,1,Africa/Algiers,airport
230,814,Tlemcen,Algeria,N,TLM,DAON,-1.45000004768,Zenata – Messali El Hadj Airport,35.0167007446,OurAirports,1,Africa/Algiers,airport
231,295,Oran,Algeria,N,ORN,DAOO,-0.6211829781529999,Es Senia Airport,35.6239013672,OurAirports,1,Africa/Algiers,airport
232,1614,Sidi Bel Abbes,Algeria,N,BFW,DAOS,-0.593275010586,Sidi Bel Abbes Airport,35.1717987061,OurAirports,1,Africa/Algiers,airport
233,1686,Ghriss,Algeria,N,MUW,DAOV,0.14714199304580688,Ghriss Airport,35.207698822021484,OurAirports,1,Africa/Algiers,airport
234,919,Adrar,Algeria,N,AZR,DAUA,-0.18641400337219238,Touat Cheikh Sidi Mohamed Belkebir Airport,27.837600708007812,OurAirports,1,Africa/Algiers,airport
235,289,Biskra,Algeria,N,BSK,DAUB,5.73823022842,Biskra Airport,34.793300628699996,OurAirports,1,Africa/Algiers,airport
236,1306,El Golea,Algeria,N,ELG,DAUE,2.8595900535583496,El Golea Airport,30.571300506591797,OurAirports,1,Africa/Algiers,airport
237,1512,Ghardaia,Algeria,N,GHA,DAUG,3.794110059738159,Noumérat - Moufdi Zakaria Airport,32.38410186767578,OurAirports,1,Africa/Algiers,airport
238,463,Hassi Messaoud,Algeria,N,HME,DAUH,6.140439987180001,Oued Irara Airport,31.673000335699996,OurAirports,1,Africa/Algiers,airport
239,896,In Salah,Algeria,N,INZ,DAUI,2.51202011108,In Salah Airport,27.250999450699997,OurAirports,1,Africa/Algiers,airport
240,279,Touggourt,Algeria,N,TGR,DAUK,6.088669776916504,Touggourt Sidi Madhi Airport,33.06779861450195,OurAirports,1,Africa/Algiers,airport
241,2510,Laghouat,Algeria,N,LOO,DAUL,2.92833995819,Laghouat Airport,33.764400482199996,OurAirports,1,Africa/Algiers,airport
242,1027,Timimoun,Algeria,N,TMX,DAUT,0.276033014059,Timimoun Airport,29.2371006012,OurAirports,1,Africa/Algiers,airport
243,492,Ouargla,Algeria,N,OGX,DAUU,5.412779808044434,Ain el Beida Airport,31.917200088500977,OurAirports,1,Africa/Algiers,airport
244,1847,Zarzaitine,Algeria,N,IAM,DAUZ,9.64291,In Aménas Airport,28.0515,OurAirports,1,Africa/Algiers,airport
245,19,Cotonou,Benin,N,COO,DBBB,2.384350061416626,Cadjehoun Airport,6.357230186462402,OurAirports,1,Africa/Porto-Novo,airport
246,1037,Ouagadougou,Burkina Faso,N,OUA,DFFD,-1.51242,Ouagadougou Airport,12.3532,OurAirports,0,Africa/Ouagadougou,airport
247,1511,Bobo-dioulasso,Burkina Faso,N,BOY,DFOO,-4.33096981048584,Bobo Dioulasso Airport,11.160099983215332,OurAirports,0,Africa/Ouagadougou,airport
248,205,Accra,Ghana,N,ACC,DGAA,-0.16678600013256073,Kotoka International Airport,5.605189800262451,OurAirports,0,Africa/Accra,airport
249,553,Tamale,Ghana,N,TML,DGLE,-0.8632140159606934,Tamale Airport,9.55718994140625,OurAirports,0,Africa/Accra,airport
250,1060,Wa,Ghana,N,\N,DGLW,-2.507689952850342,Wa Airport,10.0826997756958,OurAirports,0,Africa/Accra,airport
251,1014,Sunyani,Ghana,N,NYI,DGSN,-2.3287599086761475,Sunyani Airport,7.361830234527588,OurAirports,0,Africa/Accra,airport
252,21,Takoradi,Ghana,N,TKD,DGTK,-1.7747600078582764,Takoradi Airport,4.896059989929199,OurAirports,0,Africa/Accra,airport
253,21,Abidjan,Cote d'Ivoire,N,ABJ,DIAP,-3.9262900352478027,Port Bouet Airport,5.261390209197998,OurAirports,0,Africa/Abidjan,airport
254,1230,Bouake,Cote d'Ivoire,N,BYK,DIBK,-5.073669910430908,Bouaké Airport,7.738800048828125,OurAirports,0,Africa/Abidjan,airport
255,823,Daloa,Cote d'Ivoire,N,DJO,DIDL,-6.473189830780029,Daloa Airport,6.792809963226318,OurAirports,0,Africa/Abidjan,airport
256,1214,Korhogo,Cote d'Ivoire,N,HGO,DIKO,-5.55666017532,Korhogo Airport,9.38718032837,OurAirports,0,Africa/Abidjan,airport
257,1089,Man,Cote d'Ivoire,N,MJC,DIMN,-7.58735990524292,Man Airport,7.272069931030273,OurAirports,0,Africa/Abidjan,airport
258,26,San Pedro,Cote d'Ivoire,N,SPY,DISP,-6.660820007324219,San Pedro Airport,4.746719837188721,OurAirports,0,Africa/Abidjan,airport
259,699,Yamoussoukro,Cote d'Ivoire,N,ASK,DIYO,-5.36558008194,Yamoussoukro Airport,6.9031701088,OurAirports,0,Africa/Abidjan,airport
260,1123,Abuja,Nigeria,N,ABV,DNAA,7.263169765472412,Nnamdi Azikiwe International Airport,9.006790161132812,OurAirports,1,Africa/Lagos,airport
261,1100,Akure,Nigeria,N,AKR,DNAK,5.3010101318359375,Akure Airport,7.246739864349365,OurAirports,1,Africa/Lagos,airport
262,258,Benin,Nigeria,N,BNI,DNBE,5.5995001792907715,Benin Airport,6.316979885101318,OurAirports,1,Africa/Lagos,airport
263,210,Calabar,Nigeria,N,CBQ,DNCA,8.347200393676758,Margaret Ekpo International Airport,4.976019859313965,OurAirports,1,Africa/Lagos,airport
264,466,Enugu,Nigeria,N,ENU,DNEN,7.561960220336914,Akanu Ibiam International Airport,6.474269866943359,OurAirports,1,Africa/Lagos,airport
265,1520,Gusau,Nigeria,N,\N,DNGU,6.69611,Gusau Airport,12.1717,OurAirports,1,Africa/Lagos,airport
266,725,Ibadan,Nigeria,N,IBA,DNIB,3.97832989692688,Ibadan Airport,7.362460136413574,OurAirports,1,Africa/Lagos,airport
267,1126,Ilorin,Nigeria,N,ILR,DNIL,4.493919849395752,Ilorin International Airport,8.440210342407227,OurAirports,1,Africa/Lagos,airport
268,4232,Jos,Nigeria,N,JOS,DNJO,8.869050025939941,Yakubu Gowon Airport,9.639829635620117,OurAirports,1,Africa/Lagos,airport
269,2073,Kaduna,Nigeria,N,KAD,DNKA,7.320109844207764,Kaduna Airport,10.696000099182129,OurAirports,1,Africa/Lagos,airport
270,1562,Kano,Nigeria,N,KAN,DNKN,8.52462,Mallam Aminu International Airport,12.0476,OurAirports,1,Africa/Lagos,airport
271,1099,Maiduguri,Nigeria,N,MIU,DNMA,13.080900192260742,Maiduguri International Airport,11.855299949645996,OurAirports,1,Africa/Lagos,airport
272,371,Makurdi,Nigeria,N,MDI,DNMK,8.61394,Makurdi Airport,7.70388,OurAirports,1,Africa/Lagos,airport
273,135,Lagos,Nigeria,N,LOS,DNMM,3.321160078048706,Murtala Muhammed International Airport,6.5773701667785645,OurAirports,1,Africa/Lagos,airport
274,834,Minna,Nigeria,N,MXJ,DNMN,6.462259769439697,Minna Airport,9.652170181274414,OurAirports,1,Africa/Lagos,airport
275,87,Port Hartcourt,Nigeria,N,PHC,DNPO,6.94959020614624,Port Harcourt International Airport,5.0154900550842285,OurAirports,1,Africa/Lagos,airport
276,1010,Sokoto,Nigeria,N,SKO,DNSO,5.207190036773682,Sadiq Abubakar III International Airport,12.916299819946289,OurAirports,1,Africa/Lagos,airport
277,599,Yola,Nigeria,N,YOL,DNYO,12.430399894714355,Yola Airport,9.257550239562988,OurAirports,1,Africa/Lagos,airport
278,2170,Zaria,Nigeria,N,ZAR,DNZA,7.68581,Zaria Airport,11.1302,OurAirports,1,Africa/Lagos,airport
279,1240,Maradi,Niger,N,MFQ,DRRM,7.1267499923706055,Maradi Airport,13.5024995803833,OurAirports,1,Africa/Niamey,airport
280,732,Niamey,Niger,N,NIM,DRRN,2.18361,Diori Hamani International Airport,13.4815,OurAirports,1,Africa/Niamey,airport
281,1266,Tahoua,Niger,N,THZ,DRRT,5.265359878540039,Tahoua Airport,14.875699996948242,OurAirports,1,Africa/Niamey,airport
282,1657,Agadez,Niger,N,AJY,DRZA,8.000109672546387,Mano Dayak International Airport,16.965999603271484,OurAirports,1,Africa/Niamey,airport
283,1273,Dirkou,Niger,N,\N,DRZD,12.86870002746582,Dirkou Airport,18.968700408935547,OurAirports,1,Africa/Niamey,airport
284,994,Diffa,Niger,N,\N,DRZF,12.626700401306152,Diffa Airport,13.372900009155273,OurAirports,1,Africa/Niamey,airport
285,1516,Zinder,Niger,N,ZND,DRZR,8.983759880065918,Zinder Airport,13.779000282287598,OurAirports,1,Africa/Niamey,airport
286,9,Monastir,Tunisia,E,MIR,DTMB,10.75469970703125,Monastir Habib Bourguiba International Airport,35.75809860229492,OurAirports,1,Africa/Tunis,airport
287,22,Tunis,Tunisia,E,TUN,DTTA,10.22719955444336,Tunis Carthage International Airport,36.85100173950195,OurAirports,1,Africa/Tunis,airport
288,20,Bizerte,Tunisia,E,\N,DTTB,9.79145,Sidi Ahmed Air Base,37.245398,OurAirports,1,Africa/Tunis,airport
289,1004,Remada,Tunisia,E,\N,DTTD,10.382100105285645,Remada Air Base,32.30619812011719,OurAirports,1,Africa/Tunis,airport
290,1060,Gafsa,Tunisia,E,GAF,DTTF,8.822500228881836,Gafsa Ksar International Airport,34.422000885009766,OurAirports,1,Africa/Tunis,airport
291,26,Gabes,Tunisia,E,GAE,DTTG,10.103300094604492,Gabès Matmata International Airport,33.87689971923828,OurAirports,1,Africa/Tunis,airport
292,110,Bordj El Amri,Tunisia,E,\N,DTTI,9.94314956665039,Borj El Amri Airport,36.72129821777344,OurAirports,1,Africa/Tunis,airport
293,19,Djerba,Tunisia,E,DJE,DTTJ,10.775500297546387,Djerba Zarzis International Airport,33.875,OurAirports,1,Africa/Tunis,airport
294,827,El Borma,Tunisia,E,EBM,DTTR,9.254619598388672,El Borma Airport,31.704299926757812,OurAirports,1,Africa/Tunis,airport
295,85,Sfax,Tunisia,E,SFA,DTTX,10.690999984741211,Sfax Thyna International Airport,34.71799850463867,OurAirports,1,Africa/Tunis,airport
296,287,Tozeur,Tunisia,E,TOE,DTTZ,8.110560417175293,Tozeur Nefta International Airport,33.939701080322266,OurAirports,1,Africa/Tunis,airport
297,1515,Niatougou,Togo,N,LRL,DXNG,1.091249942779541,Niamtougou International Airport,9.767330169677734,OurAirports,0,Africa/Lome,airport
298,72,Lome,Togo,N,LFW,DXXX,1.2545100450515747,Lomé-Tokoin Airport,6.165609836578369,OurAirports,0,Africa/Lome,airport
299,39,Antwerp,Belgium,E,ANR,EBAW,4.46027994156,Antwerp International Airport (Deurne),51.1893997192,OurAirports,1,Europe/Brussels,airport
300,370,Beauvechain,Belgium,E,\N,EBBE,4.768330097198486,Beauvechain Air Base,50.75859832763672,OurAirports,1,Europe/Brussels,airport
301,200,Kleine Brogel,Belgium,E,\N,EBBL,5.47,Kleine Brogel Air Base,51.168301,OurAirports,1,Europe/Brussels,airport
302,184,Brussels,Belgium,E,BRU,EBBR,4.48443984985,Brussels Airport,50.901401519800004,OurAirports,1,Europe/Brussels,airport
303,1514,Bertrix,Belgium,E,\N,EBBX,5.2238898277282715,Jehonville Air Base,49.891700744628906,OurAirports,1,Europe/Brussels,airport
304,614,Charleroi,Belgium,E,CRL,EBCI,4.45382,Brussels South Charleroi Airport,50.459202,OurAirports,1,Europe/Brussels,airport
305,194,Chievres,Belgium,E,\N,EBCV,3.8310000896453857,Chièvres Air Base,50.575801849365234,OurAirports,1,Europe/Brussels,airport
306,20,Koksijde,Belgium,E,\N,EBFN,2.652780055999756,Koksijde Air Base,51.090301513671875,OurAirports,1,Europe/Brussels,airport
307,935,Florennes,Belgium,E,\N,EBFS,4.64583015442,Florennes Air Base,50.2433013916,OurAirports,1,Europe/Brussels,airport
308,64,Kortrijk-vevelgem,Belgium,E,KJK,EBKT,3.20472002029,Wevelgem Airport,50.817199707,OurAirports,1,Europe/Brussels,airport
309,659,Liege,Belgium,E,LGG,EBLG,5.443220138549805,Liège Airport,50.63740158081055,OurAirports,1,Europe/Brussels,airport
310,13,Ostend,Belgium,E,OST,EBOS,2.8622200489,Ostend-Bruges International Airport,51.198898315399994,OurAirports,1,Europe/Brussels,airport
311,312,Zutendaal,Belgium,E,\N,EBSL,5.590559959411621,Zutendaal Air Base,50.9474983215332,OurAirports,1,Europe/Brussels,airport
312,246,Sint-truiden,Belgium,E,\N,EBST,5.20167,Brustem Airfield Sint Truiden,50.791901,OurAirports,1,Europe/Brussels,airport
313,1930,St.-hubert,Belgium,E,\N,EBSU,5.440810203552246,Saint Hubert Air Base,50.034400939941406,OurAirports,1,Europe/Brussels,airport
314,95,Ursel,Belgium,E,\N,EBUL,3.475559949874878,Ursel Air Base,51.14419937133789,OurAirports,1,Europe/Brussels,airport
315,105,Weelde,Belgium,E,\N,EBWE,4.9601898193359375,Weelde Air Base,51.394798278808594,OurAirports,1,Europe/Brussels,airport
316,53,Zoersel,Belgium,E,OBL,EBZR,4.75333,Zoersel (Oostmalle) Airfield,51.264702,OurAirports,1,Europe/Brussels,airport
317,568,Bautzen,Germany,E,\N,EDAB,14.519722,Flugplatz Bautzen,51.193611,OurAirports,1,Europe/Berlin,airport
318,640,Altenburg,Germany,E,AOC,EDAC,12.506389,Altenburg-Nobitz Airport,50.981945,OurAirports,1,Europe/Berlin,airport
319,187,Dessau,Germany,E,\N,EDAD,12.190962,Dessau Airfield,51.831694,OurAirports,1,Europe/Berlin,airport
320,144,Eisenhuettenstadt,Germany,E,\N,EDAE,14.58753,Eisenhüttenstadt Airfield,52.195856,OurAirports,1,Europe/Berlin,airport
322,417,Suhl,Germany,E,\N,EDAK,13.555556297302246,Großenhain Airport,51.30805587768555,OurAirports,1,Europe/Berlin,airport
323,341,Muehlhausen,Germany,E,\N,EDAM,11.9408333,Merseburg Airport,51.3630556,OurAirports,1,Europe/Berlin,airport
324,348,Halle,Germany,E,\N,EDAQ,12.053889,Halle-Oppin Airport,51.552223,OurAirports,1,Europe/Berlin,airport
325,322,Riesa,Germany,E,IES,EDAU,13.3561105728,Riesa-Göhlis Airport,51.2936096191,OurAirports,1,Europe/Berlin,airport
326,220,Rechlin-laerz,Germany,E,REB,EDAX,12.7522220612,Rechlin-Lärz Airport,53.306388855,OurAirports,1,Europe/Berlin,airport
327,262,Strausberg,Germany,E,\N,EDAY,13.916666984558105,Strausberg Airport,52.5805549621582,OurAirports,1,Europe/Berlin,airport
328,152,Schoenhagen,Germany,E,QXH,EDAZ,13.156389,Schönhagen Airport,52.203609,OurAirports,1,Europe/Berlin,airport
329,23,Barth,Germany,E,BBH,EDBH,12.710515,Barth Airport,54.338253,OurAirports,1,Europe/Berlin,airport
330,1247,Jena,Germany,E,\N,EDBJ,11.714444,Jena-Schöngleina Airfield,50.915279,OurAirports,1,Europe/Berlin,airport
331,131,Kyritz,Germany,E,\N,EDBK,12.425277709960938,Kyritz Airport,52.918888092041016,OurAirports,1,Europe/Berlin,airport
332,259,Magdeburg,Germany,E,ZMG,EDBM,11.626389,"Magdeburg ""City"" Airport",52.073612,OurAirports,1,Europe/Berlin,airport
333,518,Rothenburg/ol,Germany,E,\N,EDBR,14.949999809265137,Rothenburg/Görlitz Airport,51.36333465576172,OurAirports,1,Europe/Berlin,airport
334,16,Anklam,Germany,E,\N,EDCA,13.668611,Anklam Airfield,53.832779,OurAirports,1,Europe/Berlin,airport
335,272,Cottbus,Germany,E,CBU,EDCD,14.531944,Cottbus-Drewitz Airport,51.889442,OurAirports,1,Europe/Berlin,airport
336,495,Kamenz,Germany,E,\N,EDCM,14.1274995803833,Kamenz Airport,51.29694366455078,OurAirports,1,Europe/Berlin,airport
337,157,Berlin,Germany,E,SXF,EDDB,13.5225,Berlin-Schönefeld Airport,52.380001,OurAirports,1,Europe/Berlin,airport
338,755,Dresden,Germany,E,DRS,EDDC,13.767200469970703,Dresden Airport,51.1328010559082,OurAirports,1,Europe/Berlin,airport
339,1036,Erfurt,Germany,E,ERF,EDDE,10.958100318908691,Erfurt Airport,50.979801177978516,OurAirports,1,Europe/Berlin,airport
340,364,Frankfurt,Germany,E,FRA,EDDF,8.570556,Frankfurt am Main Airport,50.033333,OurAirports,1,Europe/Berlin,airport
341,160,Munster,Germany,E,FMO,EDDG,7.68483018875,Münster Osnabrück Airport,52.134601593,OurAirports,1,Europe/Berlin,airport
342,53,Hamburg,Germany,E,HAM,EDDH,9.9882297515869,Hamburg Airport,53.630401611328,OurAirports,1,Europe/Berlin,airport
343,167,Berlin,Germany,E,THF,EDDI,13.403900146484375,Berlin-Tempelhof International Airport,52.472999572753906,OurAirports,1,Europe/Berlin,airport
344,302,Cologne,Germany,E,CGN,EDDK,7.1427397728,Cologne Bonn Airport,50.8658981323,OurAirports,1,Europe/Berlin,airport
345,147,Duesseldorf,Germany,E,DUS,EDDL,6.76678,Düsseldorf Airport,51.289501,OurAirports,1,Europe/Berlin,airport
346,1487,Munich,Germany,E,MUC,EDDM,11.7861,Munich Airport,48.353802,OurAirports,1,Europe/Berlin,airport
347,1046,Nuernberg,Germany,E,NUE,EDDN,11.078056,Nuremberg Airport,49.498699,OurAirports,1,Europe/Berlin,airport
348,465,Leipzig,Germany,E,LEJ,EDDP,12.236389,Leipzig/Halle Airport,51.423889,OurAirports,1,Europe/Berlin,airport
349,1058,Saarbruecken,Germany,E,SCN,EDDR,7.10950994492,Saarbrücken Airport,49.214599609400004,OurAirports,1,Europe/Berlin,airport
350,1276,Stuttgart,Germany,E,STR,EDDS,9.22196006775,Stuttgart Airport,48.689899444599995,OurAirports,1,Europe/Berlin,airport
351,122,Berlin,Germany,E,TXL,EDDT,13.2877,Berlin-Tegel Airport,52.5597,OurAirports,1,Europe/Berlin,airport
352,183,Hannover,Germany,E,HAJ,EDDV,9.685079574580001,Hannover Airport,52.461101532,OurAirports,1,Europe/Berlin,airport
353,14,Bremen,Germany,E,BRE,EDDW,8.78666973114,Bremen Airport,53.0475006104,OurAirports,1,Europe/Berlin,airport
354,384,Egelsbach,Germany,E,QEF,EDFE,8.645833,Frankfurt-Egelsbach Airport,49.959999,OurAirports,1,Europe/Berlin,airport
355,1649,Hahn,Germany,E,HHN,EDFH,7.26389,Frankfurt-Hahn Airport,49.9487,OurAirports,1,Europe/Berlin,airport
356,308,Mannheim,Germany,E,MHG,EDFM,8.514167,Mannheim-City Airport,49.473057,OurAirports,1,Europe/Berlin,airport
357,1158,Allendorf,Germany,E,\N,EDFQ,8.680832862854004,Allendorf/Eder Airport,51.03499984741211,OurAirports,1,Europe/Berlin,airport
358,295,Worms,Germany,E,\N,EDFV,8.368333,Worms Airport,49.606945,OurAirports,1,Europe/Berlin,airport
359,525,Mainz,Germany,E,\N,EDFZ,8.147222,Mainz-Finthen Airport,49.967499,OurAirports,1,Europe/Berlin,airport
360,1112,Eisenach,Germany,E,EIB,EDGE,10.47973,Eisenach-Kindel Airport,50.991604,OurAirports,1,Europe/Berlin,airport
361,1966,Siegerland,Germany,E,SGE,EDGS,8.082969665527344,Siegerland Airport,50.707698822021484,OurAirports,1,Europe/Berlin,airport
362,23,Hamburg,Germany,E,XFW,EDHI,9.835556030273438,Hamburg-Finkenwerder Airport,53.5352783203125,OurAirports,1,Europe/Berlin,airport
363,102,Kiel,Germany,E,KEL,EDHK,10.145277976989746,Kiel-Holtenau Airport,54.37944412231445,OurAirports,1,Europe/Berlin,airport
364,53,Luebeck,Germany,E,LBC,EDHL,10.7192001343,Lübeck Blankensee Airport,53.8054008484,OurAirports,1,Europe/Berlin,airport
365,1896,Dahlemer Binz,Germany,E,\N,EDKV,6.5288891792,Flugplatz Dahlemer Binz,50.405555725,OurAirports,1,Europe/Berlin,airport
366,1549,Meinerzhagen,Germany,E,\N,EDKZ,7.599999904632568,Meinerzhagen Airport,51.099998474121094,OurAirports,1,Europe/Berlin,airport
367,794,Arnsberg,Germany,E,\N,EDLA,7.8983330726623535,Arnsberg-Menden Airport,51.483890533447266,OurAirports,1,Europe/Berlin,airport
368,424,Essen,Germany,E,ESS,EDLE,6.9373297691345215,Essen Mulheim Airport,51.40230178833008,OurAirports,1,Europe/Berlin,airport
369,454,Bielefeld,Germany,E,BFE,EDLI,8.544444,Bielefeld Airport,51.964722,OurAirports,1,Europe/Berlin,airport
370,125,Moenchengladbach,Germany,E,MGL,EDLN,6.504444,Mönchengladbach Airport,51.230278,OurAirports,1,Europe/Berlin,airport
371,699,Paderborn,Germany,E,PAD,EDLP,8.616319656369999,Paderborn Lippstadt Airport,51.614101409899995,OurAirports,1,Europe/Berlin,airport
372,157,Stadtlohn,Germany,E,\N,EDLS,6.8405561447143555,Stadtlohn-Vreden Airport,51.99583435058594,OurAirports,1,Europe/Berlin,airport
373,425,Dortmund,Germany,E,DTM,EDLW,7.61223983765,Dortmund Airport,51.51829910279999,OurAirports,1,Europe/Berlin,airport
374,1516,Augsburg,Germany,E,AGB,EDMA,10.931667,Augsburg Airport,48.425278,OurAirports,1,Europe/Berlin,airport
375,1903,Biberach,Germany,E,\N,EDMB,9.762778,Biberach a.d. Riß Airfield,48.111111,OurAirports,1,Europe/Berlin,airport
376,1342,Eggenfelden,Germany,E,\N,EDME,12.723610877990723,Eggenfelden Airport,48.39611053466797,OurAirports,1,Europe/Berlin,airport
377,1857,Mindelheim,Germany,E,\N,EDMN,10.525,Mindelheim-Mattsies Airfield,48.106945,OurAirports,1,Europe/Berlin,airport
378,1947,Oberpfaffenhofen,Germany,E,OBF,EDMO,11.2831,Oberpfaffenhofen Airport,48.081402,OurAirports,1,Europe/Berlin,airport
379,1047,Straubing,Germany,E,RBM,EDMS,12.516667366027832,Straubing Airport,48.90083312988281,OurAirports,1,Europe/Berlin,airport
380,991,Vilshofen,Germany,E,\N,EDMV,13.195555686950684,Vilshofen Airport,48.6349983215332,OurAirports,1,Europe/Berlin,airport
381,2100,Leutkirch,Germany,E,\N,EDNL,10.014166831970215,Leutkirch-Unterzeil Airport,47.858890533447266,OurAirports,1,Europe/Berlin,airport
382,1367,Friedrichshafen,Germany,E,FDH,EDNY,9.51148986816,Friedrichshafen Airport,47.671298980699994,OurAirports,1,Europe/Berlin,airport
383,166,Parchim,Germany,E,SZW,EDOP,11.7834,Schwerin Parchim Airport,53.426998,OurAirports,1,Europe/Berlin,airport
384,184,Stendal,Germany,E,\N,EDOV,11.818611145019531,Stendal-Borstel Airport,52.62888717651367,OurAirports,1,Europe/Berlin,airport
385,1916,Aalen-heidenheim,Germany,E,\N,EDPA,10.264721870422363,Aalen-Heidenheim/Elchingen Airport,48.77777862548828,OurAirports,1,Europe/Berlin,airport
386,1601,Bayreuth,Germany,E,BYU,EDQD,11.64,Bayreuth Airport,49.985001,OurAirports,1,Europe/Berlin,airport
387,1673,Burg Feuerstein,Germany,E,URD,EDQE,11.133610725403,Burg Feuerstein Airport,49.794166564941,OurAirports,1,Europe/Berlin,airport
388,1959,Hof,Germany,E,HOQ,EDQM,11.856389045715332,Hof-Plauen Airport,50.288612365722656,OurAirports,1,Europe/Berlin,airport
389,719,Hassfurt,Germany,E,\N,EDQT,10.529443740844727,Haßfurt-Schweinfurt Airport,50.0180549621582,OurAirports,1,Europe/Berlin,airport
390,640,Koblenz,Germany,E,\N,EDRK,7.528611,Koblenz-Winningen Airfield,50.325558,OurAirports,1,Europe/Berlin,airport
391,666,Trier,Germany,E,\N,EDRT,6.7875,Trier-Föhren Airport,49.863888,OurAirports,1,Europe/Berlin,airport
392,312,Speyer,Germany,E,\N,EDRY,8.451389,Speyer Airfield,49.304722,OurAirports,1,Europe/Berlin,airport
393,1132,Zweibruecken,Germany,E,ZQW,EDRZ,7.40056,Zweibrücken Airport,49.2094,OurAirports,1,Europe/Berlin,airport
394,2231,Donaueschingen,Germany,E,ZQL,EDTD,8.52222156525,Donaueschingen-Villingen Airport,47.97333145139999,OurAirports,1,Europe/Berlin,airport
395,801,Freiburg,Germany,E,\N,EDTF,7.83249998093,Freiburg i. Br. Airport,48.022777557400005,OurAirports,1,Europe/Berlin,airport
396,1818,Mengen,Germany,E,\N,EDTM,9.372777938842773,Mengen-Hohentengen Airport,48.053890228271484,OurAirports,1,Europe/Berlin,airport
397,1299,Schwaebisch Hall,Germany,E,\N,EDTY,9.783888816829998,Adolf Würth Airport,49.1183319092,OurAirports,1,Europe/Berlin,airport
398,384,Soest,Germany,E,\N,EDUS,13.743611,Finsterwalde/Schacksdorf Airport,51.607498,OurAirports,1,Europe/Berlin,airport
399,295,Braunschweig,Germany,E,BWE,EDVE,10.5561,Braunschweig-Wolfsburg Airport,52.319199,OurAirports,1,Europe/Berlin,airport
400,820,Kassel,Germany,E,KSF,EDVK,9.384967,Kassel-Calden Airport,51.417273,OurAirports,1,Europe/Berlin,airport
401,292,Hildesheim,Germany,E,\N,EDVM,9.946389198303223,Hildesheim Airport,52.18138885498047,OurAirports,1,Europe/Berlin,airport
402,10,Bremerhaven,Germany,E,BRV,EDWB,8.572778,Bremerhaven Airport,53.506943,OurAirports,1,Europe/Berlin,airport
403,3,Emden,Germany,E,EME,EDWE,7.2275,Emden Airport,53.391109,OurAirports,1,Europe/Berlin,airport
404,3,Leer,Germany,E,\N,EDWF,7.441667079925537,Leer-Papenburg Airport,53.271942138671875,OurAirports,1,Europe/Berlin,airport
405,16,Wilhelmshaven,Germany,E,WVN,EDWI,8.05222225189209,Wilhelmshaven-Mariensiel Airport,53.502220153808594,OurAirports,1,Europe/Berlin,airport
406,3,Borkum,Germany,E,BMK,EDWR,6.709167,Borkum Airport,53.59639,OurAirports,1,Europe/Berlin,airport
407,7,Norderney,Germany,E,NRD,EDWY,7.230000019073486,Norderney Airport,53.70694351196289,OurAirports,1,Europe/Berlin,airport
408,131,Flensburg,Germany,E,FLF,EDXF,9.378889083862305,Flensburg-Schäferhaus Airport,54.77333450317383,OurAirports,1,Europe/Berlin,airport
409,23,Rendsburg,Germany,E,\N,EDXR,9.599444389343262,Rendsburg-Schachtholm Airport,54.220001220703125,OurAirports,1,Europe/Berlin,airport
410,51,Westerland,Germany,E,GWT,EDXW,8.34047031403,Westerland Sylt Airport,54.9132003784,OurAirports,1,Europe/Berlin,airport
411,65,Armari Air Force Base,Estonia,E,\N,EEEI,24.208499908447266,Ämari Air Base,59.26029968261719,OurAirports,2,Europe/Tallinn,airport
412,18,Kardla,Estonia,E,KDL,EEKA,22.830699920654297,Kärdla Airport,58.99079895019531,OurAirports,2,Europe/Tallinn,airport
413,14,Kuressaare,Estonia,E,URE,EEKE,22.50950050354004,Kuressaare Airport,58.22990036010742,OurAirports,2,Europe/Tallinn,airport
414,47,Parnu,Estonia,E,EPU,EEPU,24.47279930114746,Pärnu Airport,58.41899871826172,OurAirports,2,Europe/Tallinn,airport
415,131,Tallinn-ulemiste International,Estonia,E,TLL,EETN,24.832799911499997,Lennart Meri Tallinn Airport,59.41329956049999,OurAirports,2,Europe/Tallinn,airport
416,219,Tartu,Estonia,E,TAY,EETU,26.690399169900004,Tartu Airport,58.3074989319,OurAirports,2,Europe/Tallinn,airport
417,1005,Enontekio,Finland,E,ENF,EFET,23.424299240112,Enontekio Airport,68.362602233887,OurAirports,2,Europe/Helsinki,airport
418,259,Eura,Finland,E,\N,EFEU,22.201400756835938,Eura Airport,61.1161003112793,OurAirports,2,Europe/Helsinki,airport
419,479,Halli,Finland,E,KEV,EFHA,24.786686,Halli Airport,61.856039,OurAirports,2,Europe/Helsinki,airport
420,57,Helsinki,Finland,E,HEM,EFHF,25.042800903320312,Helsinki Malmi Airport,60.254600524902344,OurAirports,2,Europe/Helsinki,airport
421,179,Helsinki,Finland,E,HEL,EFHK,24.963300704956,Helsinki Vantaa Airport,60.317199707031,OurAirports,2,Europe/Helsinki,airport
422,449,Hameenkyro,Finland,E,\N,EFHM,23.073699951171875,Hameenkyro Airport,61.689701080322266,OurAirports,2,Europe/Helsinki,airport
423,20,Hanko,Finland,E,\N,EFHN,23.083599090576172,Hanko Airport,59.848899841308594,OurAirports,2,Europe/Helsinki,airport
424,430,Hyvinkaa,Finland,E,HYV,EFHV,24.8810997009,Hyvinkää Airfield,60.6543998718,OurAirports,2,Europe/Helsinki,airport
425,381,Kikala,Finland,E,\N,EFIK,23.6525001526,Kiikala Airport,60.4625015259,OurAirports,2,Europe/Helsinki,airport
426,338,Immola,Finland,E,\N,EFIM,28.90369987487793,Immola Airport,61.24919891357422,OurAirports,2,Europe/Helsinki,airport
427,364,Kitee,Finland,E,KTQ,EFIT,30.073601,Kitee Airport,62.1661,OurAirports,2,Europe/Helsinki,airport
428,481,Ivalo,Finland,E,IVL,EFIV,27.405300140381,Ivalo Airport,68.607299804688,OurAirports,2,Europe/Helsinki,airport
429,398,Joensuu,Finland,E,JOE,EFJO,29.607500076294,Joensuu Airport,62.662899017334,OurAirports,2,Europe/Helsinki,airport
430,459,Jyvaskyla,Finland,E,JYV,EFJY,25.678300857544,Jyvaskyla Airport,62.399501800537,OurAirports,2,Europe/Helsinki,airport
431,151,Kauhava,Finland,E,KAU,EFKA,23.051399,Kauhava Airport,63.127102,OurAirports,2,Europe/Helsinki,airport
432,61,Kemi,Finland,E,KEM,EFKE,24.582099914551,Kemi-Tornio Airport,65.778701782227,OurAirports,2,Europe/Helsinki,airport
433,483,Kajaani,Finland,E,KAJ,EFKI,27.692399978638,Kajaani Airport,64.285499572754,OurAirports,2,Europe/Helsinki,airport
434,407,Kauhajoki,Finland,E,KHJ,EFKJ,22.3931007385,Kauhajoki Airport,62.4625015259,OurAirports,2,Europe/Helsinki,airport
435,84,Kruunupyy,Finland,E,KOK,EFKK,23.143100738525,Kokkola-Pietarsaari Airport,63.721199035645,OurAirports,2,Europe/Helsinki,airport
436,692,Kemijarvi,Finland,E,\N,EFKM,27.156799,Kemijarvi Airport,66.712898,OurAirports,2,Europe/Helsinki,airport
437,866,Kuusamo,Finland,E,KAO,EFKS,29.239400863647,Kuusamo Airport,65.987602233887,OurAirports,2,Europe/Helsinki,airport
438,644,Kittila,Finland,E,KTT,EFKT,24.846799850464,Kittilä Airport,67.700996398926,OurAirports,2,Europe/Helsinki,airport
439,323,Kuopio,Finland,E,KUO,EFKU,27.797800064087,Kuopio Airport,63.007099151611,OurAirports,2,Europe/Helsinki,airport
440,502,Vesivehmaa,Finland,E,QLF,EFLA,25.693501,Lahti Vesivehmaa Airport,61.144199,OurAirports,2,Europe/Helsinki,airport
441,349,Lappeenranta,Finland,E,LPP,EFLP,28.144743,Lappeenranta Airport,61.044601,OurAirports,2,Europe/Helsinki,airport
442,17,Mariehamn,Finland,E,MHQ,EFMA,19.898199081421,Mariehamn Airport,60.122200012207,OurAirports,2,Europe/Mariehamn,airport
443,331,Menkijarvi,Finland,E,\N,EFME,23.51889991760254,Menkijarvi Airport,62.94670104980469,OurAirports,2,Europe/Helsinki,airport
444,329,Mikkeli,Finland,E,MIK,EFMI,27.201799,Mikkeli Airport,61.6866,OurAirports,2,Europe/Helsinki,airport
445,367,Nummela,Finland,E,\N,EFNU,24.2964000702,Nummela Airport,60.333900451699996,OurAirports,2,Europe/Helsinki,airport
446,47,Oulu,Finland,E,OUL,EFOU,25.354600906372,Oulu Airport,64.930099487305,OurAirports,2,Europe/Helsinki,airport
447,148,Piikajarvi,Finland,E,\N,EFPI,22.19339942932129,Piikajarvi Airport,61.245601654052734,OurAirports,2,Europe/Helsinki,airport
448,44,Pori,Finland,E,POR,EFPO,21.799999237061,Pori Airport,61.461700439453,OurAirports,2,Europe/Helsinki,airport
449,397,Pudasjarvi,Finland,E,\N,EFPU,26.946899414100002,Pudasjärvi Airport,65.4021987915,OurAirports,2,Europe/Helsinki,airport
450,528,Pyhasalmi,Finland,E,\N,EFPY,25.926300048799998,Pyhäsalmi Airport,63.7318992615,OurAirports,2,Europe/Helsinki,airport
451,118,Pattijoki,Finland,E,\N,EFRH,24.6958007812,Raahe Pattijoki Airport,64.6881027222,OurAirports,2,Europe/Helsinki,airport
452,292,Rantasalmi,Finland,E,\N,EFRN,28.3565006256,Rantasalmi Airport,62.0654983521,OurAirports,2,Europe/Helsinki,airport
453,642,Rovaniemi,Finland,E,RVN,EFRO,25.830400466919,Rovaniemi Airport,66.564796447754,OurAirports,2,Europe/Helsinki,airport
454,407,Rayskala,Finland,E,\N,EFRY,24.107799530029297,Rayskala Airport,60.74470138549805,OurAirports,2,Europe/Helsinki,airport
455,311,Savonlinna,Finland,E,SVL,EFSA,28.945100784302,Savonlinna Airport,61.943099975586,OurAirports,2,Europe/Helsinki,airport
456,417,Selanpaa,Finland,E,\N,EFSE,26.798900604248047,Selanpaa Airport,61.062400817871094,OurAirports,2,Europe/Helsinki,airport
457,602,Sodankyla,Finland,E,SOT,EFSO,26.6191005707,Sodankyla Airport,67.3949966431,OurAirports,2,Europe/Helsinki,airport
458,390,Tampere,Finland,E,TMP,EFTP,23.604400634766,Tampere-Pirkkala Airport,61.414100646973,OurAirports,2,Europe/Helsinki,airport
459,515,Teisko,Finland,E,\N,EFTS,24.027,Teisko Airport,61.7733,OurAirports,2,Europe/Helsinki,airport
460,161,Turku,Finland,E,TKU,EFTU,22.262800216675,Turku Airport,60.514099121094,OurAirports,2,Europe/Helsinki,airport
461,339,Utti,Finland,E,UTI,EFUT,26.938400268555,Utti Air Base,60.89640045166,OurAirports,2,Europe/Helsinki,airport
462,19,Vaasa,Finland,E,VAA,EFVA,21.762199401855,Vaasa Airport,63.050701141357,OurAirports,2,Europe/Helsinki,airport
463,286,Varkaus,Finland,E,VRK,EFVR,27.868600845337,Varkaus Airport,62.171100616455,OurAirports,2,Europe/Helsinki,airport
464,252,Ylivieska-raudaskyla,Finland,E,YLI,EFYL,24.7252778,Ylivieska Airfield,64.0547222,OurAirports,2,Europe/Helsinki,airport
465,268,Belfast,United Kingdom,E,BFS,EGAA,-6.2158298492399995,Belfast International Airport,54.6575012207,OurAirports,0,Europe/London,airport
466,155,Enniskillen,United Kingdom,E,ENK,EGAB,-7.651669979095459,St Angelo Airport,54.39889907836914,OurAirports,0,Europe/London,airport
467,15,Belfast,United Kingdom,E,BHD,EGAC,-5.872499942779541,George Best Belfast City Airport,54.618099212646484,OurAirports,0,Europe/London,airport
468,22,Londonderry,United Kingdom,E,LDY,EGAE,-7.161109924316406,City of Derry Airport,55.04280090332031,OurAirports,0,Europe/London,airport
469,327,Birmingham,United Kingdom,E,BHX,EGBB,-1.74802994728,Birmingham International Airport,52.453899383499994,OurAirports,0,Europe/London,airport
470,267,Coventry,United Kingdom,E,CVT,EGBE,-1.4797199964499999,Coventry Airport,52.3697013855,OurAirports,0,Europe/London,airport
471,469,Leicester,United Kingdom,E,\N,EGBG,-1.03193998336792,Leicester Airport,52.6077995300293,OurAirports,0,Europe/London,airport
472,101,Golouchestershire,United Kingdom,E,GLO,EGBJ,-2.167220115661621,Gloucestershire Airport,51.89419937133789,OurAirports,0,Europe/London,airport
474,283,Halfpenny Green,United Kingdom,E,\N,EGBO,-2.2594399452209473,Wolverhampton Halfpenny Green Airport,52.51750183105469,OurAirports,0,Europe/London,airport
475,433,Pailton,United Kingdom,E,GBA,EGBP,-2.05694,Cotswold Airport,51.668095,OurAirports,0,Europe/London,airport
476,448,Turweston,United Kingdom,E,\N,EGBT,-1.09555995464,Turweston Airport,52.0407981873,OurAirports,0,Europe/London,airport
477,159,Wellesbourne,United Kingdom,E,\N,EGBW,-1.6144399642944336,Wellesbourne Mountford Airport,52.19219970703125,OurAirports,0,Europe/London,airport
478,257,Manchester,United Kingdom,E,MAN,EGCC,-2.2749500274658203,Manchester Airport,53.35369873046875,OurAirports,0,Europe/London,airport
479,295,Woodfort,United Kingdom,E,\N,EGCD,-2.14889,Manchester Woodford Airport,53.3381,OurAirports,0,Europe/London,airport
480,27,Chivenor,United Kingdom,E,\N,EGDC,-4.1503400802612305,Royal Marines Base Chivenor Airport,51.08720016479492,OurAirports,0,Europe/London,airport
481,390,Newquai,United Kingdom,E,NQY,EGHQ,-4.995409965515137,Newquay Cornwall Airport,50.44060134887695,OurAirports,0,Europe/London,airport
482,513,Lyneham,United Kingdom,E,LYE,EGDL,-1.99343,RAF Lyneham,51.5051,OurAirports,0,Europe/London,airport
483,407,Boscombe Down,United Kingdom,E,\N,EGDM,-1.7474100589752197,MoD Boscombe Down Airport,51.152198791503906,OurAirports,0,Europe/London,airport
484,267,Culdrose,United Kingdom,E,\N,EGDR,-5.255710124969482,RNAS Culdrose,50.08610153198242,OurAirports,0,Europe/London,airport
485,163,St. Athan,United Kingdom,E,\N,EGDX,-3.43575,MoD St. Athan,51.4048,OurAirports,0,Europe/London,airport
486,75,Yeovilton,United Kingdom,E,YEO,EGDY,-2.638819932937622,RNAS Yeovilton,51.0093994140625,OurAirports,0,Europe/London,airport
487,159,Haverfordwest,United Kingdom,E,HAW,EGFE,-4.9611101150512695,Haverfordwest Airport,51.833099365234375,OurAirports,0,Europe/London,airport
488,220,Cardiff,United Kingdom,E,CWL,EGFF,-3.343329906463623,Cardiff International Airport,51.39670181274414,OurAirports,0,Europe/London,airport
489,299,Swansea,United Kingdom,E,SWS,EGFH,-4.0678300857543945,Swansea Airport,51.60530090332031,OurAirports,0,Europe/London,airport
490,622,Bristol,United Kingdom,E,BRS,EGGD,-2.71909,Bristol Airport,51.382702,OurAirports,0,Europe/London,airport
491,80,Liverpool,United Kingdom,E,LPL,EGGP,-2.849720001220703,Liverpool John Lennon Airport,53.33359909057617,OurAirports,0,Europe/London,airport
492,526,London,United Kingdom,E,LTN,EGGW,-0.36833301186561584,London Luton Airport,51.874698638916016,OurAirports,0,Europe/London,airport
493,476,Plymouth,United Kingdom,E,PLH,EGHD,-4.10583,Plymouth City Airport,50.422798,OurAirports,0,Europe/London,airport
494,38,Bournemouth,United Kingdom,E,BOH,EGHH,-1.8424999713897705,Bournemouth Airport,50.779998779296875,OurAirports,0,Europe/London,airport
495,44,Southampton,United Kingdom,E,SOU,EGHI,-1.3567999601364136,Southampton Airport,50.95029830932617,OurAirports,0,Europe/London,airport
496,618,Lasham,United Kingdom,E,QLA,EGHL,-1.0334999561309814,Lasham Airport,51.187198638916016,OurAirports,0,Europe/London,airport
497,290,Alderney,Guernsey,E,ACI,EGJA,-2.21472,Alderney Airport,49.706104,OurAirports,0,Europe/Guernsey,airport
498,336,Guernsey,Guernsey,E,GCI,EGJB,-2.6019699573516846,Guernsey Airport,49.435001373291016,OurAirports,0,Europe/Guernsey,airport
499,277,Jersey,Jersey,E,JER,EGJJ,-2.195509910583496,Jersey Airport,49.20790100097656,OurAirports,0,Europe/Jersey,airport
500,7,Shoreham By Sea,United Kingdom,E,ESH,EGKA,-0.297222,Shoreham Airport,50.835602,OurAirports,0,Europe/London,airport
501,598,Biggin Hill,United Kingdom,E,BQH,EGKB,0.0324999988079,London Biggin Hill Airport,51.33079910279999,OurAirports,0,Europe/London,airport
502,202,London,United Kingdom,E,LGW,EGKK,-0.190278,London Gatwick Airport,51.148102,OurAirports,0,Europe/London,airport
503,19,London,United Kingdom,E,LCY,EGLC,0.055278,London City Airport,51.505299,OurAirports,0,Europe/London,airport
504,238,Farnborough,United Kingdom,E,FAB,EGLF,-0.776332974434,Farnborough Airport,51.2757987976,OurAirports,0,Europe/London,airport
505,240,Chalsgrove,United Kingdom,E,\N,EGLJ,-1.0808299779891968,Chalgrove Airport,51.67610168457031,OurAirports,0,Europe/London,airport
506,325,Blackbushe,United Kingdom,E,BBS,EGLK,-0.8475000262260437,Blackbushe Airport,51.32389831542969,OurAirports,0,Europe/London,airport
507,83,London,United Kingdom,E,LHR,EGLL,-0.461941,London Heathrow Airport,51.4706,OurAirports,0,Europe/London,airport
508,49,Southend,United Kingdom,E,SEN,EGMC,0.6955559849739075,Southend Airport,51.5713996887207,OurAirports,0,Europe/London,airport
509,13,Lydd,United Kingdom,E,LYX,EGMD,0.9391670227050781,Lydd Airport,50.95610046386719,OurAirports,0,Europe/London,airport
510,178,Manston,United Kingdom,E,MSE,EGMH,1.34611,Kent International Airport,51.342201,OurAirports,0,Europe/London,airport
511,12,Brough,United Kingdom,E,\N,EGNB,-0.566333,Brough Airport,53.7197,OurAirports,0,Europe/London,airport
512,190,Carlisle,United Kingdom,E,CAX,EGNC,-2.8091700077056885,Carlisle Airport,54.9375,OurAirports,0,Europe/London,airport
513,91,Repton,United Kingdom,E,\N,EGNE,-0.9513890147209167,Retford Gamston Airport,53.280601501464844,OurAirports,0,Europe/London,airport
514,34,Blackpool,United Kingdom,E,BLK,EGNH,-3.0286099910736084,Blackpool International Airport,53.77170181274414,OurAirports,0,Europe/London,airport
515,121,Humberside,United Kingdom,E,HUY,EGNJ,-0.350832998752594,Humberside Airport,53.57440185546875,OurAirports,0,Europe/London,airport
516,173,Barrow Island,United Kingdom,E,BWF,EGNL,-3.2675,Barrow Walney Island Airport,54.1286111,OurAirports,0,Europe/London,airport
517,681,Leeds,United Kingdom,E,LBA,EGNM,-1.6605700254440308,Leeds Bradford Airport,53.86589813232422,OurAirports,0,Europe/London,airport
518,55,Warton,United Kingdom,E,WRT,EGNO,-2.88306,Warton Airport,53.745098,OurAirports,0,Europe/London,airport
519,45,Hawarden,United Kingdom,E,CEG,EGNR,-2.9777801036834717,Hawarden Airport,53.1781005859375,OurAirports,0,Europe/London,airport
520,52,Isle Of Man,Isle of Man,E,IOM,EGNS,-4.623889923095703,Isle of Man Airport,54.08330154418945,OurAirports,0,Europe/Isle_of_Man,airport
521,266,Newcastle,United Kingdom,E,NCL,EGNT,-1.6916699409484863,Newcastle Airport,55.037498474121094,OurAirports,0,Europe/London,airport
522,120,Teesside,United Kingdom,E,MME,EGNV,-1.4294099807739258,Durham Tees Valley Airport,54.50920104980469,OurAirports,0,Europe/London,airport
523,306,East Midlands,United Kingdom,E,EMA,EGNX,-1.32806003094,East Midlands Airport,52.8311004639,OurAirports,0,Europe/London,airport
524,30,Llanbedr,United Kingdom,E,\N,EGOD,-4.1235799789429,Llanbedr Airport,52.811698913574,OurAirports,0,Europe/London,airport
525,272,Ternhill,United Kingdom,E,\N,EGOE,-2.533560037612915,RAF Ternhill,52.87120056152344,OurAirports,0,Europe/London,airport
526,249,Shawbury,United Kingdom,E,\N,EGOS,-2.6680400371551514,RAF Shawbury,52.79819869995117,OurAirports,0,Europe/London,airport
528,37,Woodvale,United Kingdom,E,\N,EGOW,-3.05552,RAF Woodvale,53.5816,OurAirports,0,Europe/London,airport
529,50,Kirkwall,United Kingdom,E,KOI,EGPA,-2.9049999713897705,Kirkwall Airport,58.957801818847656,OurAirports,0,Europe/London,airport
530,20,Sumburgh,United Kingdom,E,LSI,EGPB,-1.2955600023269653,Sumburgh Airport,59.87889862060547,OurAirports,0,Europe/London,airport
531,126,Wick,United Kingdom,E,WIC,EGPC,-3.09306001663208,Wick Airport,58.458900451660156,OurAirports,0,Europe/London,airport
532,215,Aberdeen,United Kingdom,E,ABZ,EGPD,-2.197779893875122,Aberdeen Dyce Airport,57.201900482177734,OurAirports,0,Europe/London,airport
533,31,Inverness,United Kingdom,E,INV,EGPE,-4.047500133514404,Inverness Airport,57.54249954223633,OurAirports,0,Europe/London,airport
534,26,Glasgow,United Kingdom,E,GLA,EGPF,-4.43306016922,Glasgow International Airport,55.8718986511,OurAirports,0,Europe/London,airport
535,135,Edinburgh,United Kingdom,E,EDI,EGPH,-3.372499942779541,Edinburgh Airport,55.95000076293945,OurAirports,0,Europe/London,airport
536,56,Islay,United Kingdom,E,ILY,EGPI,-6.256669998168945,Islay Airport,55.68190002441406,OurAirports,0,Europe/London,airport
537,65,Prestwick,United Kingdom,E,PIK,EGPK,-4.586669921875,Glasgow Prestwick Airport,55.5093994140625,OurAirports,0,Europe/London,airport
538,19,Benbecula,United Kingdom,E,BEB,EGPL,-7.3627800941467285,Benbecula Airport,57.48109817504883,OurAirports,0,Europe/London,airport
539,81,Scatsta,United Kingdom,E,SCS,EGPM,-1.2961100339889526,Scatsta Airport,60.43280029296875,OurAirports,0,Europe/London,airport
540,17,Dundee,United Kingdom,E,DND,EGPN,-3.025830030441284,Dundee Airport,56.45249938964844,OurAirports,0,Europe/London,airport
541,26,Stornoway,United Kingdom,E,SYY,EGPO,-6.331110000610352,Stornoway Airport,58.215599060058594,OurAirports,0,Europe/London,airport
542,38,Tiree,United Kingdom,E,TRE,EGPU,-6.869170188903809,Tiree Airport,56.49919891357422,OurAirports,0,Europe/London,airport
543,38,Leuchars,United Kingdom,E,ADX,EGQL,-2.8684399127960205,RAF Leuchars,56.37289810180664,OurAirports,0,Europe/London,airport
544,42,Lossiemouth,United Kingdom,E,LMO,EGQS,-3.339169979095459,RAF Lossiemouth,57.7052001953125,OurAirports,0,Europe/London,airport
545,47,Cambridge,United Kingdom,E,CBG,EGSC,0.175,Cambridge Airport,52.205002,OurAirports,0,Europe/London,airport
546,26,Peterborough,United Kingdom,E,\N,EGSF,-0.2511110007762909,Peterborough Business Airport,52.468101501464844,OurAirports,0,Europe/London,airport
547,117,Norwich,United Kingdom,E,NWI,EGSH,1.28278005123,Norwich International Airport,52.6758003235,OurAirports,0,Europe/London,airport
548,348,London,United Kingdom,E,STN,EGSS,0.234999999404,London Stansted Airport,51.8849983215,OurAirports,0,Europe/London,airport
549,321,North Weald,United Kingdom,E,\N,EGSX,0.154166996479,North Weald Airport,51.721698761,OurAirports,0,Europe/London,airport
550,231,Fowlmere,United Kingdom,E,\N,EGSY,-1.38849,Sheffield City Heliport,53.394299,OurAirports,0,Europe/London,airport
551,358,Cranfield,United Kingdom,E,\N,EGTC,-0.616666972637,Cranfield Airport,52.0722007751,OurAirports,0,Europe/London,airport
552,102,Exeter,United Kingdom,E,EXT,EGTE,-3.4138898849487305,Exeter International Airport,50.73440170288086,OurAirports,0,Europe/London,airport
553,226,Bristol,United Kingdom,E,FZO,EGTG,-2.59083008766,Bristol Filton Airport,51.5194015503,OurAirports,0,Europe/London,airport
554,270,Oxford,United Kingdom,E,OXF,EGTK,-1.32000005245,Oxford (Kidlington) Airport,51.8368988037,OurAirports,0,Europe/London,airport
555,226,Benson,United Kingdom,E,BEX,EGUB,-1.09582996368,RAF Benson,51.616401672399995,OurAirports,0,Europe/London,airport
556,32,Lakenheath,United Kingdom,E,LKZ,EGUL,0.56099998951,RAF Lakenheath,52.409301757799994,OurAirports,0,Europe/London,airport
557,33,Mildenhall,United Kingdom,E,MHZ,EGUN,0.48640599846839905,RAF Mildenhall,52.361900329589844,OurAirports,0,Europe/London,airport
558,284,Wattisham,United Kingdom,E,\N,EGUW,0.956264019012,RAF Wattisham,52.1273002625,OurAirports,0,Europe/London,airport
559,135,Wyton,United Kingdom,E,QUY,EGUY,-0.107832998037,RAF Wyton,52.3572006226,OurAirports,0,Europe/London,airport
560,286,Fairford,United Kingdom,E,FFD,EGVA,-1.7900300025900002,RAF Fairford,51.6822013855,OurAirports,0,Europe/London,airport
561,288,Brize Norton,United Kingdom,E,BZZ,EGVN,-1.58362,RAF Brize Norton,51.75,OurAirports,0,Europe/London,airport
562,405,Odiham,United Kingdom,E,ODH,EGVO,-0.94282501936,RAF Odiham,51.2341003418,OurAirports,0,Europe/London,airport
563,272,Cosford,United Kingdom,E,\N,EGWC,-2.30558,DCAE Cosford Air Base,52.639999,OurAirports,0,Europe/London,airport
564,124,Northolt,United Kingdom,E,NHT,EGWU,-0.418166995049,RAF Northolt,51.553001403799996,OurAirports,0,Europe/London,airport
565,25,Coningsby,United Kingdom,E,QCY,EGXC,-0.166014000773,RAF Coningsby,53.0929985046,OurAirports,0,Europe/London,airport
566,117,Dishforth,United Kingdom,E,\N,EGXD,-1.42025005817,RAF Dishforth,54.1371994019,OurAirports,0,Europe/London,airport
567,132,Leeming,United Kingdom,E,\N,EGXE,-1.5354,Leeming Airport,54.2924,OurAirports,0,Europe/London,airport
568,29,Church Fenton,United Kingdom,E,\N,EGXG,-1.1955,Leeds East Airport,53.834301,OurAirports,0,Europe/London,airport
569,174,Honington,United Kingdom,E,BEQ,EGXH,0.7729390263557434,RAF Honington,52.34260177612305,OurAirports,0,Europe/London,airport
570,461,Cottesmore,United Kingdom,E,\N,EGXJ,-0.648769,RAF Cottesmore,52.735699,OurAirports,0,Europe/London,airport
571,202,Scampton,United Kingdom,E,SQZ,EGXP,-0.550832986832,RAF Scampton,53.307800293,OurAirports,0,Europe/London,airport
572,273,Wittering,United Kingdom,E,\N,EGXT,-0.476453,RAF Wittering,52.612598,OurAirports,0,Europe/London,airport
573,53,Linton-on-ouse,United Kingdom,E,HRT,EGXU,-1.2527500391,RAF Linton-On-Ouse,54.0489006042,OurAirports,0,Europe/London,airport
574,231,Waddington,United Kingdom,E,WTN,EGXW,-0.523810982704,RAF Waddington,53.1661987305,OurAirports,0,Europe/London,airport
575,92,Topcliffe,United Kingdom,E,\N,EGXZ,-1.3820899725,RAF Topcliffe,54.205501556399994,OurAirports,0,Europe/London,airport
576,218,Cranwell,United Kingdom,E,\N,EGYD,-0.48324200511,RAF Cranwell,53.0303001404,OurAirports,0,Europe/London,airport
577,367,Barkston Heath,United Kingdom,E,\N,EGYE,-0.561625003815,RAF Barkston Heath,52.962200164799995,OurAirports,0,Europe/London,airport
578,75,Marham,United Kingdom,E,KNF,EGYM,0.550692,RAF Marham,52.648395,OurAirports,0,Europe/London,airport
579,244,Mount Pleasant,Falkland Islands,U,MPN,EGYP,-58.447200775146484,Mount Pleasant Airport,-51.82279968261719,OurAirports,-3,Atlantic/Stanley,airport
580,-11,Amsterdam,Netherlands,E,AMS,EHAM,4.76389,Amsterdam Airport Schiphol,52.308601,OurAirports,1,Europe/Amsterdam,airport
581,114,Weert,Netherlands,E,\N,EHBD,5.60139,Budel Airfield Kempen,51.255299,OurAirports,1,Europe/Amsterdam,airport
582,375,Maastricht,Netherlands,E,MST,EHBK,5.77014,Maastricht Aachen Airport,50.911701,OurAirports,1,Europe/Amsterdam,airport
583,158,Deelen,Netherlands,E,\N,EHDL,5.87306,Deelen Air Base,52.0606,OurAirports,1,Europe/Amsterdam,airport
584,14,Drachten,Netherlands,E,\N,EHDR,6.12972021103,Drachten Airport,53.1192016602,OurAirports,1,Europe/Amsterdam,airport
585,74,Eindhoven,Netherlands,E,EIN,EHEH,5.37452983856,Eindhoven Airport,51.4500999451,OurAirports,1,Europe/Amsterdam,airport
586,17,Groningen,Netherlands,E,GRQ,EHGG,6.57944011688,Eelde Airport,53.1197013855,OurAirports,1,Europe/Amsterdam,airport
587,49,Gilze-rijen,Netherlands,E,GLZ,EHGR,4.931829929351807,Gilze Rijen Air Base,51.56740188598633,OurAirports,1,Europe/Amsterdam,airport
588,3,De Kooy,Netherlands,E,DHR,EHKD,4.780620098114014,De Kooy Airport,52.92340087890625,OurAirports,1,Europe/Amsterdam,airport
589,-13,Lelystad,Netherlands,E,LEY,EHLE,5.52722,Lelystad Airport,52.4603,OurAirports,1,Europe/Amsterdam,airport
590,3,Leeuwarden,Netherlands,E,LWR,EHLW,5.760560035705566,Leeuwarden Air Base,53.228599548339844,OurAirports,1,Europe/Amsterdam,airport
591,-15,Rotterdam,Netherlands,E,RTM,EHRD,4.43722,Rotterdam The Hague Airport,51.956902,OurAirports,1,Europe/Amsterdam,airport
592,66,Soesterberg,Netherlands,E,UTC,EHSB,5.27618980408,Soesterberg Air Base,52.1273002625,OurAirports,1,Europe/Amsterdam,airport
593,114,Enschede,Netherlands,E,ENS,EHTW,6.889167,Twente Airport,52.275833,OurAirports,1,Europe/Amsterdam,airport
594,1,Valkenburg,Netherlands,E,LID,EHVB,4.41794013977,Valkenburg Naval Air Base,52.166099548300004,OurAirports,1,Europe/Amsterdam,airport
595,63,Woensdrecht,Netherlands,E,WOE,EHWO,4.34203,Woensdrecht Air Base,51.4491,OurAirports,1,Europe/Amsterdam,airport
596,502,Cork,Ireland,E,ORK,EICK,-8.491109848022461,Cork Airport,51.84130096435547,OurAirports,0,Europe/Dublin,airport
597,81,Galway,Ireland,E,GWY,EICM,-8.941590309143066,Galway Airport,53.300201416015625,OurAirports,0,Europe/Dublin,airport
599,242,Dublin,Ireland,E,DUB,EIDW,-6.27007,Dublin Airport,53.421299,OurAirports,0,Europe/Dublin,airport
600,665,Connaught,Ireland,E,NOC,EIKN,-8.818490028381348,Ireland West Knock Airport,53.910301208496094,OurAirports,0,Europe/Dublin,airport
601,112,Kerry,Ireland,E,KIR,EIKY,-9.52377986907959,Kerry Airport,52.18090057373047,OurAirports,0,Europe/Dublin,airport
602,319,Casement,Ireland,E,\N,EIME,-6.451330184940001,Casement Air Base,53.301700592,OurAirports,0,Europe/Dublin,airport
603,46,Shannon,Ireland,E,SNN,EINN,-8.92482,Shannon Airport,52.702,OurAirports,0,Europe/Dublin,airport
604,11,Sligo,Ireland,E,SXL,EISG,-8.5992097854614,Sligo Airport,54.280200958252,OurAirports,0,Europe/Dublin,airport
605,119,Waterford,Ireland,E,WAT,EIWF,-7.0869598388671875,Waterford Airport,52.187198638916016,OurAirports,0,Europe/Dublin,airport
607,82,Aarhus,Denmark,E,AAR,EKAH,10.619000434899998,Aarhus Airport,56.2999992371,OurAirports,1,Europe/Copenhagen,airport
608,247,Billund,Denmark,E,BLL,EKBI,9.15178012848,Billund Airport,55.7402992249,OurAirports,1,Europe/Copenhagen,airport
609,17,Copenhagen,Denmark,E,CPH,EKCH,12.656000137329,Copenhagen Kastrup Airport,55.617900848389,OurAirports,1,Europe/Copenhagen,airport
610,97,Esbjerg,Denmark,E,EBJ,EKEB,8.5534,Esbjerg Airport,55.525902,OurAirports,1,Europe/Copenhagen,airport
611,97,Gronholt,Denmark,E,\N,EKGH,12.382200241088867,Grønholt Hillerød Airport,55.94139862060547,OurAirports,1,Europe/Copenhagen,airport
612,170,Karup,Denmark,E,KRP,EKKA,9.124629974365234,Karup Airport,56.29750061035156,OurAirports,1,Europe/Copenhagen,airport
613,25,Laeso,Denmark,E,BYR,EKLS,11.000100135803223,Læsø Airport,57.277198791503906,OurAirports,1,Europe/Copenhagen,airport
614,16,Maribo,Denmark,E,MRW,EKMB,11.4401,Lolland Falster Maribo Airport,54.699299,OurAirports,1,Europe/Copenhagen,airport
615,56,Odense,Denmark,E,ODE,EKOD,10.330900192260742,Odense Airport,55.47669982910156,OurAirports,1,Europe/Copenhagen,airport
616,88,Krusa-padborg,Denmark,E,\N,EKPB,9.279009819030762,Kruså-Padborg Airport,54.87030029296875,OurAirports,1,Europe/Copenhagen,airport
617,146,Copenhagen,Denmark,E,RKE,EKRK,12.131400108337402,Copenhagen Roskilde Airport,55.585601806640625,OurAirports,1,Europe/Copenhagen,airport
618,52,Ronne,Denmark,E,RNN,EKRN,14.759599685668945,Bornholm Airport,55.06330108642578,OurAirports,1,Europe/Copenhagen,airport
619,24,Soenderborg,Denmark,E,SGD,EKSB,9.791729927062988,Sønderborg Airport,54.96440124511719,OurAirports,1,Europe/Copenhagen,airport
621,141,Skrydstrup,Denmark,E,SKS,EKSP,9.26702,Skrydstrup Air Base,55.221048,OurAirports,1,Europe/Copenhagen,airport
622,74,Skive,Denmark,E,SQW,EKSV,9.172980308532715,Skive Airport,56.550201416015625,OurAirports,1,Europe/Copenhagen,airport
623,23,Thisted,Denmark,E,TED,EKTS,8.705220222473145,Thisted Airport,57.06880187988281,OurAirports,1,Europe/Copenhagen,airport
624,143,Kolding,Denmark,E,\N,EKVD,9.33092,Kolding Vamdrup Airfield,55.436298,OurAirports,1,Europe/Copenhagen,airport
625,280,Vagar,Faroe Islands,E,FAE,EKVG,-7.277219772338867,Vagar Airport,62.0635986328125,OurAirports,0,Atlantic/Faeroe,airport
626,119,Vesthimmerland,Denmark,E,\N,EKVH,9.45861,Vesthimmerlands Flyveplads,56.846901,OurAirports,1,Europe/Copenhagen,airport
627,17,Stauning,Denmark,E,STA,EKVJ,8.353910446166992,Stauning Airport,55.9901008605957,OurAirports,1,Europe/Copenhagen,airport
628,10,Aalborg,Denmark,E,AAL,EKYT,9.84924316406,Aalborg Airport,57.0927589138,OurAirports,1,Europe/Copenhagen,airport
629,1234,Luxemburg,Luxembourg,E,LUX,ELLX,6.2044444,Luxembourg-Findel International Airport,49.6233333,OurAirports,1,Europe/Luxembourg,airport
630,69,Alesund,Norway,E,AES,ENAL,6.119699954986572,Ålesund Airport,62.5625,OurAirports,1,Europe/Oslo,airport
631,43,Andoya,Norway,E,ANX,ENAN,16.144199371338,Andøya Airport,69.292503356934,OurAirports,1,Europe/Oslo,airport
632,9,Alta,Norway,E,ALF,ENAT,23.371700286865,Alta Airport,69.976097106934,OurAirports,1,Europe/Oslo,airport
633,300,Voss,Norway,E,\N,ENBM,6.501500129699707,Bømoen Airport,60.63890075683594,OurAirports,1,Europe/Oslo,airport
634,25,Bronnoysund,Norway,E,BNN,ENBN,12.217499732971,Brønnøysund Airport,65.461097717285,OurAirports,1,Europe/Oslo,airport
635,42,Bodo,Norway,E,BOO,ENBO,14.365300178527832,Bodø Airport,67.26920318603516,OurAirports,1,Europe/Oslo,airport
636,170,Bergen,Norway,E,BGO,ENBR,5.218140125,Bergen Airport Flesland,60.29339981,OurAirports,1,Europe/Oslo,airport
637,490,Batsfjord,Norway,E,BJF,ENBS,29.691400527954,Båtsfjord Airport,70.60050201416,OurAirports,1,Europe/Oslo,airport
638,57,Kristiansand,Norway,E,KRS,ENCN,8.08537,Kristiansand Airport,58.204201,OurAirports,1,Europe/Oslo,airport
639,2618,Geilo,Norway,E,DLD,ENDI,8.518349647521973,Geilo Airport Dagali,60.417301177978516,OurAirports,1,Europe/Oslo,airport
640,252,Bardufoss,Norway,E,BDU,ENDU,18.540399551392,Bardufoss Airport,69.055801391602,OurAirports,1,Europe/Oslo,airport
641,84,Harstad/Narvik,Norway,E,EVE,ENEV,16.678100585938,"Harstad/Narvik Airport, Evenes",68.491302490234,OurAirports,1,Europe/Oslo,airport
642,2697,Fagernes,Norway,E,VDB,ENFG,9.2880601882935,Leirin Airport,61.015598297119,OurAirports,1,Europe/Oslo,airport
643,37,Floro,Norway,E,FRO,ENFL,5.0247201919556,Florø Airport,61.583599090576,OurAirports,1,Europe/Oslo,airport
644,681,Oslo,Norway,E,OSL,ENGM,11.0502,Oslo Lufthavn,60.121,OurAirports,1,Europe/Oslo,airport
645,86,Haugesund,Norway,E,HAU,ENHD,5.2083601951599,Haugesund Airport,59.34529876709,OurAirports,1,Europe/Oslo,airport
646,21,Hasvik,Norway,E,HAA,ENHK,22.139699935913,Hasvik Airport,70.486701965332,OurAirports,1,Europe/Oslo,airport
647,204,Kristiansund,Norway,E,KSU,ENKB,7.824520111084,Kristiansund Airport (Kvernberget),63.111801147461,OurAirports,1,Europe/Oslo,airport
648,354,Kjeller,Norway,E,\N,ENKJ,11.036100387600001,Kjeller Airport,59.9692993164,OurAirports,1,Europe/Oslo,airport
649,283,Kirkenes,Norway,E,KKN,ENKR,29.891300201416,Kirkenes Airport (Høybuktmoen),69.725799560547,OurAirports,1,Europe/Oslo,airport
650,29,Farsund,Norway,E,FAN,ENLI,6.626049995422363,Lista Airport,58.0994987487793,OurAirports,1,Europe/Oslo,airport
651,10,Molde,Norway,E,MOL,ENML,7.2624998092651,Molde Airport,62.744701385498,OurAirports,1,Europe/Oslo,airport
652,237,Mosjoen,Norway,E,MJF,ENMS,13.214900016785,Mosjøen Airport (Kjærstad),65.783996582031,OurAirports,1,Europe/Oslo,airport
653,25,Lakselv,Norway,E,LKL,ENNA,24.973499298096,Banak Airport,70.068801879883,OurAirports,1,Europe/Oslo,airport
654,63,Notodden,Norway,E,NTB,ENNO,9.21222,Notodden Airport,59.565701,OurAirports,1,Europe/Oslo,airport
655,28,Orland,Norway,E,OLA,ENOL,9.604000091552734,Ørland Airport,63.69889831542969,OurAirports,1,Europe/Oslo,airport
656,2054,Roros,Norway,E,RRS,ENRO,11.342300415039,Røros Airport,62.578399658203,OurAirports,1,Europe/Oslo,airport
657,174,Rygge,Norway,E,RYG,ENRY,10.785439,"Moss Airport, Rygge",59.378817,OurAirports,1,Europe/Oslo,airport
658,88,Svalbard,Norway,E,LYR,ENSB,15.465600013733,"Svalbard Airport, Longyear",78.246101379395,OurAirports,1,Arctic/Longyearbyen,airport
659,463,Skien,Norway,E,SKE,ENSN,9.566940307617188,Skien Airport,59.185001373291016,OurAirports,1,Europe/Oslo,airport
660,160,Stord,Norway,E,SRP,ENSO,5.340849876403809,Stord Airport,59.791900634765625,OurAirports,1,Europe/Oslo,airport
662,56,Sandnessjoen,Norway,E,SSJ,ENST,12.468899726868,Sandnessjøen Airport (Stokka),65.956802368164,OurAirports,1,Europe/Oslo,airport
663,31,Tromso,Norway,E,TOS,ENTC,18.918899536132812,"Tromsø Airport,",69.68329620361328,OurAirports,1,Europe/Oslo,airport
664,286,Sandefjord,Norway,E,TRF,ENTO,10.258600235,"Sandefjord Airport, Torp",59.1866989136,OurAirports,1,Europe/Oslo,airport
665,56,Trondheim,Norway,E,TRD,ENVA,10.9239998,Trondheim Airport Værnes,63.4578018,OurAirports,1,Europe/Oslo,airport
666,29,Stavanger,Norway,E,SVG,ENZV,5.6377801895,Stavanger Airport Sola,58.876701354,OurAirports,1,Europe/Oslo,airport
667,352,Warsaw,Poland,E,\N,EPBC,20.910999298095703,Babice Airport,52.26850128173828,OurAirports,1,Europe/Warsaw,airport
668,489,Gdansk,Poland,E,GDN,EPGD,18.46619987487793,Gdańsk Lech Wałęsa Airport,54.377601623535156,OurAirports,1,Europe/Warsaw,airport
669,791,Krakow,Poland,E,KRK,EPKK,19.7848,Kraków John Paul II International Airport,50.077702,OurAirports,1,Europe/Warsaw,airport
670,909,Katowice,Poland,E,\N,EPKM,19.03420066833496,Muchowiec Airport,50.23809814453125,OurAirports,1,Europe/Warsaw,airport
671,995,Katowice,Poland,E,KTW,EPKT,19.08,Katowice International Airport,50.4743,OurAirports,1,Europe/Warsaw,airport
673,548,Mielec,Poland,E,\N,EPML,21.462099075317383,Mielec Airport,50.32229995727539,OurAirports,1,Europe/Warsaw,airport
674,308,Poznan,Poland,E,POZ,EPPO,16.8262996674,Poznań-Ławica Airport,52.421001434299995,OurAirports,1,Europe/Warsaw,airport
675,675,Rzeszow,Poland,E,RZE,EPRZ,22.0189990997,Rzeszów-Jasionka Airport,50.1100006104,OurAirports,1,Europe/Warsaw,airport
676,154,Szczecin,Poland,E,SZZ,EPSC,14.902199745199999,"Szczecin-Goleniów ""Solidarność"" Airport",53.584701538100006,OurAirports,1,Europe/Warsaw,airport
677,217,Slupsk,Poland,E,OSP,EPSK,17.107500076293945,Redzikowo Air Base,54.47890090942383,OurAirports,1,Europe/Warsaw,airport
678,385,Shapaja,Poland,E,\N,EPSN,15.826299667399999,Swidwin Military Air Base,53.790599823,OurAirports,1,Europe/Warsaw,airport
679,362,Warsaw,Poland,E,WAW,EPWA,20.967100143399996,Warsaw Chopin Airport,52.1656990051,OurAirports,1,Europe/Warsaw,airport
680,404,Wroclaw,Poland,E,WRO,EPWR,16.885799408,Copernicus Wrocław Airport,51.1026992798,OurAirports,1,Europe/Warsaw,airport
681,194,Zielona Gora,Poland,E,IEG,EPZG,15.7986001968,Zielona Góra-Babimost Airport,52.138500213600004,OurAirports,1,Europe/Warsaw,airport
682,308,Linkoeping,Sweden,E,\N,ESCF,15.525699615478516,Malmen Air Base,58.40230178833008,OurAirports,1,Europe/Stockholm,airport
683,90,Norrkoeping,Sweden,E,\N,ESCK,16.103599548339844,Bråvalla Air Base,58.61090087890625,OurAirports,1,Europe/Stockholm,airport
684,68,Uppsala,Sweden,E,\N,ESCM,17.588600158691406,Uppsala Airport,59.897300720214844,OurAirports,1,Europe/Stockholm,airport
685,191,Ronneby,Sweden,E,RNB,ESDF,15.265000343323,Ronneby Airport,56.266700744629,OurAirports,1,Europe/Stockholm,airport
686,230,Rada,Sweden,E,\N,ESFR,13.053199768066406,Råda Air Base,58.49810028076172,OurAirports,1,Europe/Stockholm,airport
687,506,Gothenborg,Sweden,E,GOT,ESGG,12.279800415039,Gothenburg-Landvetter Airport,57.662799835205,OurAirports,1,Europe/Stockholm,airport
688,741,Joenkoeping,Sweden,E,JKG,ESGJ,14.068699836730957,Jönköping Airport,57.757598876953125,OurAirports,1,Europe/Stockholm,airport
689,785,Falkoping,Sweden,E,\N,ESGK,13.587800025939941,Falköping Airport,58.1697998046875,OurAirports,1,Europe/Stockholm,airport
690,200,Lidkoping,Sweden,E,LDK,ESGL,13.1744,Lidköping-Hovby Airport,58.4655,OurAirports,1,Europe/Stockholm,airport
691,59,Gothenborg,Sweden,E,GSE,ESGP,11.8704,Gothenburg City Airport,57.7747,OurAirports,1,Europe/Stockholm,airport
692,324,Skovde,Sweden,E,KVB,ESGR,13.972700119018555,Skövde Airport,58.45640182495117,OurAirports,1,Europe/Stockholm,airport
693,137,Trollhattan,Sweden,E,THN,ESGT,12.345000267028809,Trollhättan-Vänersborg Airport,58.31809997558594,OurAirports,1,Europe/Stockholm,airport
694,308,Karlsborg,Sweden,E,\N,ESIA,14.507100105285645,Karlsborg Air Base,58.51380157470703,OurAirports,1,Europe/Stockholm,airport
695,181,Satenas,Sweden,E,\N,ESIB,12.714400291442871,Såtenäs Air Base,58.42639923095703,OurAirports,1,Europe/Stockholm,airport
696,50,Stockholm,Sweden,E,\N,ESKB,17.8821372986,Barkarby Airport,59.4144743644,OurAirports,1,Europe/Stockholm,airport
697,400,Karlskoga,Sweden,E,KSK,ESKK,14.49590015411377,Karlskoga Airport,59.34590148925781,OurAirports,1,Europe/Stockholm,airport
698,634,Mora,Sweden,E,MXX,ESKM,14.5114,Mora Airport,60.957901,OurAirports,1,Europe/Stockholm,airport
699,140,Stockholm,Sweden,E,NYO,ESKN,16.912200927734375,Stockholm Skavsta Airport,58.78860092163086,OurAirports,1,Europe/Stockholm,airport
700,237,Arvika,Sweden,E,\N,ESKV,12.6394,Arvika Airport,59.6759,OurAirports,1,Europe/Stockholm,airport
701,442,Emmaboda,Sweden,E,\N,ESMA,15.6048,Emmaboda Airfield,56.610802,OurAirports,1,Europe/Stockholm,airport
702,538,Ljungby,Sweden,E,\N,ESMG,13.921699523900001,Feringe Airport,56.9502983093,OurAirports,1,Europe/Stockholm,airport
703,76,Kristianstad,Sweden,E,KID,ESMK,14.08549976348877,Kristianstad Airport,55.92169952392578,OurAirports,1,Europe/Stockholm,airport
704,194,Landskrona,Sweden,E,\N,ESML,12.869999885559082,Landskrona Airport,55.94599914550781,OurAirports,1,Europe/Stockholm,airport
705,96,Oskarshamn,Sweden,E,OSK,ESMO,16.497999,Oskarshamn Airport,57.350498,OurAirports,1,Europe/Stockholm,airport
706,507,Anderstorp,Sweden,E,\N,ESMP,13.59939956665039,Anderstorp Airport,57.264198303222656,OurAirports,1,Europe/Stockholm,airport
707,17,Kalkmar,Sweden,E,KLR,ESMQ,16.287599563598633,Kalmar Airport,56.68550109863281,OurAirports,1,Europe/Stockholm,airport
708,236,Malmoe,Sweden,E,MMX,ESMS,13.376197814900001,Malmö Sturup Airport,55.536305364,OurAirports,1,Europe/Stockholm,airport
709,101,Halmstad,Sweden,E,HAD,ESMT,12.820199966430664,Halmstad Airport,56.69110107421875,OurAirports,1,Europe/Stockholm,airport
710,556,Hagshult,Sweden,E,\N,ESMV,14.1372,Hagshult Air Base,57.292198,OurAirports,1,Europe/Stockholm,airport
711,610,Vaxjo,Sweden,E,VXO,ESMX,14.727999687194824,Växjö Kronoberg Airport,56.929100036621094,OurAirports,1,Europe/Stockholm,airport
712,1119,Hallviken,Sweden,E,\N,ESNA,15.45829963684082,Hallviken Airport,63.73830032348633,OurAirports,1,Europe/Stockholm,airport
713,1460,Hede,Sweden,E,\N,ESNC,13.747200012199999,Hedlanda Airport,62.40890121459999,OurAirports,1,Europe/Stockholm,airport
714,1178,Sveg,Sweden,E,EVG,ESND,14.422900199890137,Sveg Airport,62.04779815673828,OurAirports,1,Europe/Stockholm,airport
715,1027,Gallivare,Sweden,E,GEV,ESNG,20.814599990844727,Gällivare Airport,67.13240051269531,OurAirports,1,Europe/Stockholm,airport
716,95,Hudiksvall,Sweden,E,HUV,ESNH,17.0806999207,Hudiksvall Airport,61.7681007385,OurAirports,1,Europe/Stockholm,airport
717,904,Jokkmokk,Sweden,E,\N,ESNJ,20.147199630737305,Jokkmokk Airport,66.49620056152344,OurAirports,1,Europe/Stockholm,airport
718,34,Kramfors,Sweden,E,KRF,ESNK,17.76889991760254,Kramfors Sollefteå Airport,63.04859924316406,OurAirports,1,Europe/Stockholm,airport
719,705,Lycksele,Sweden,E,LYC,ESNL,18.71619987487793,Lycksele Airport,64.54830169677734,OurAirports,1,Europe/Stockholm,airport
720,1236,Optand,Sweden,E,\N,ESNM,14.802800178527832,Optand Airport,63.12860107421875,OurAirports,1,Europe/Stockholm,airport
721,16,Sundsvall,Sweden,E,SDL,ESNN,17.443899154663086,Sundsvall-Härnösand Airport,62.528099060058594,OurAirports,1,Europe/Stockholm,airport
722,354,Ornskoldsvik,Sweden,E,OER,ESNO,18.989999771118164,Örnsköldsvik Airport,63.40829849243164,OurAirports,1,Europe/Stockholm,airport
723,43,Pitea,Sweden,E,\N,ESNP,21.260799407958984,Piteå Airport,65.39830017089844,OurAirports,1,Europe/Stockholm,airport
724,1508,Kiruna,Sweden,E,KRN,ESNQ,20.336799621582,Kiruna Airport,67.821998596191,OurAirports,1,Europe/Stockholm,airport
725,683,Orsa,Sweden,E,\N,ESNR,14.712599754333496,Orsa Airport,61.189998626708984,OurAirports,1,Europe/Stockholm,airport
726,157,Skelleftea,Sweden,E,SFT,ESNS,21.076900482177734,Skellefteå Airport,64.62480163574219,OurAirports,1,Europe/Stockholm,airport
727,886,Sattna,Sweden,E,\N,ESNT,17.002899,Sättna Airport,62.4814,OurAirports,1,Europe/Stockholm,airport
728,24,Umea,Sweden,E,UME,ESNU,20.282800674438,Umeå Airport,63.791801452637,OurAirports,1,Europe/Stockholm,airport
729,1140,Vilhelmina,Sweden,E,VHM,ESNV,16.833599090576172,Vilhelmina Airport,64.5791015625,OurAirports,1,Europe/Stockholm,airport
730,1245,Arvidsjaur,Sweden,E,AJR,ESNX,19.28190040588379,Arvidsjaur Airport,65.59030151367188,OurAirports,1,Europe/Stockholm,airport
731,188,Orebro,Sweden,E,ORB,ESOE,15.038000106811523,Örebro Airport,59.22370147705078,OurAirports,1,Europe/Stockholm,airport
733,21,Vasteras,Sweden,E,VST,ESOW,16.63360023498535,Stockholm Västerås Airport,59.58940124511719,OurAirports,1,Europe/Stockholm,airport
734,65,Lulea,Sweden,E,LLA,ESPA,22.121999740601,Luleå Airport,65.543800354004,OurAirports,1,Europe/Stockholm,airport
735,597,Vidsel,Sweden,E,\N,ESPE,20.149900436401367,Vidsel Air Base,65.87529754638672,OurAirports,1,Europe/Stockholm,airport
736,33,Arboga,Sweden,E,\N,ESQO,15.924099922180176,Arboga Airport,59.386600494384766,OurAirports,1,Europe/Stockholm,airport
737,137,Stockholm,Sweden,E,ARN,ESSA,17.918600082397,Stockholm-Arlanda Airport,59.651901245117,OurAirports,1,Europe/Stockholm,airport
738,47,Stockholm,Sweden,E,BMA,ESSB,17.941699981689453,Stockholm-Bromma Airport,59.354400634765625,OurAirports,1,Europe/Stockholm,airport
739,503,Borlange,Sweden,E,BLE,ESSD,15.515199661254883,Borlange Airport,60.422000885009766,OurAirports,1,Europe/Stockholm,airport
740,366,Hultsfred,Sweden,E,HLF,ESSF,15.8233,Hultsfred Airport,57.525799,OurAirports,1,Europe/Stockholm,airport
741,224,Gavle,Sweden,E,GVX,ESSK,16.951400756835938,Gävle Sandviken Airport,60.593299865722656,OurAirports,1,Europe/Stockholm,airport
742,172,Linkoeping,Sweden,E,LPI,ESSL,15.680500030500001,Linköping City Airport,58.4062004089,OurAirports,1,Europe/Stockholm,airport
743,32,Norrkoeping,Sweden,E,NRK,ESSP,16.250600814819336,Norrköping Airport,58.586299896240234,OurAirports,1,Europe/Stockholm,airport
745,139,Eskilstuna,Sweden,E,EKT,ESSU,16.70840072631836,Eskilstuna Airport,59.35110092163086,OurAirports,1,Europe/Stockholm,airport
746,164,Visby,Sweden,E,VBY,ESSV,18.346200942993,Visby Airport,57.662799835205,OurAirports,1,Europe/Stockholm,airport
748,1549,Kalixfors,Sweden,E,\N,ESUK,20.257200241088867,Kalixfors Airport,67.76480102539062,OurAirports,1,Europe/Stockholm,airport
750,1197,Spangdahlem,Germany,E,SPM,ETAD,6.69250011444,Spangdahlem Air Base,49.9726982117,OurAirports,1,Europe/Berlin,airport
751,776,Ramstein,Germany,E,RMS,ETAR,7.600279808044434,Ramstein Air Base,49.4369010925293,OurAirports,1,Europe/Berlin,airport
753,980,Giebelstadt,Germany,E,GHF,ETEU,9.966489791870002,[Duplicate] Giebelstadt Army Air Field,49.648101806599996,OurAirports,1,Europe/Berlin,airport
754,230,Brueckeburg,Germany,E,\N,ETHB,9.08217,Bückeburg Air Base,52.2785,OurAirports,1,Europe/Berlin,airport
755,129,Celle,Germany,E,ZCN,ETHC,10.022100448608398,Celle Airport,52.59120178222656,OurAirports,1,Europe/Berlin,airport
756,129,Rheine-brentlange,Germany,E,\N,ETHE,7.387,Rheine Bentlage Air Base,52.291199,OurAirports,1,Europe/Berlin,airport
757,1345,Fritzlar,Germany,E,FRZ,ETHF,9.286,Fritzlar Airport,51.1146,OurAirports,1,Europe/Berlin,airport
758,1766,Laupheim,Germany,E,\N,ETHL,9.91002,Laupheim Air Base,48.220299,OurAirports,1,Europe/Berlin,airport
759,597,Mendig,Germany,E,\N,ETHM,7.31533,Mendig Airfield,50.366001,OurAirports,1,Europe/Berlin,airport
760,1339,Niederstetten,Germany,E,\N,ETHN,9.958889,Niederstetten Army Air Base,49.391945,OurAirports,1,Europe/Berlin,airport
761,1268,Roth,Germany,E,\N,ETHR,11.100199699401855,Roth Airport,49.217498779296875,OurAirports,1,Europe/Berlin,airport
762,245,Fassberg,Germany,E,\N,ETHS,10.185827,Fassberg Air Base,52.919399,OurAirports,1,Europe/Berlin,airport
763,1363,Grafenwoehr,Germany,E,\N,ETIC,11.940199851989746,Grafenwohr Army Air Field,49.698699951171875,OurAirports,1,Europe/Berlin,airport
764,368,Hanau,Germany,E,ZNF,ETID,8.96159,Hanau Army Air Field,50.169201,OurAirports,1,Europe/Berlin,airport
765,1455,Hohenfels,Germany,E,\N,ETIH,11.836099624633789,Hohenfels Army Air Field,49.218101501464844,OurAirports,1,Europe/Berlin,airport
766,689,Kitzingen,Germany,E,KZG,ETIN,10.2006,Flugplatz Kitzingen,49.743099,OurAirports,1,Europe/Berlin,airport
767,74,Nordholz,Germany,E,FCN,ETMN,8.658499717709999,Nordholz Naval Airbase,53.7677001953,OurAirports,1,Europe/Berlin,airport
768,128,Diepholz,Germany,E,\N,ETND,8.342222,Diepholz Air Base,52.585556,OurAirports,1,Europe/Berlin,airport
769,296,Geilenkirchen,Germany,E,GKE,ETNG,6.04242,Geilenkirchen Air Base,50.9608,OurAirports,1,Europe/Berlin,airport
770,39,Hohn,Germany,E,\N,ETNH,9.53817,Hohn Air Base,54.312199,OurAirports,1,Europe/Berlin,airport
771,24,Jever,Germany,E,\N,ETNJ,7.88867,Jever Air Base,53.533501,OurAirports,1,Europe/Berlin,airport
772,138,Laage,Germany,E,RLG,ETNL,12.278300285299999,Rostock-Laage Airport,53.9182014465,OurAirports,1,Europe/Berlin,airport
773,386,Noervenich,Germany,E,\N,ETNN,6.65817,Nörvenich Air Base,50.8312,OurAirports,1,Europe/Berlin,airport
774,70,Schleswig,Germany,E,WBG,ETNS,9.51633,Schleswig Air Base,54.459301,OurAirports,1,Europe/Berlin,airport
775,26,Wittmundhafen,Germany,E,\N,ETNT,7.667329788208008,Wittmundhafen Airport,53.54779815673828,OurAirports,1,Europe/Berlin,airport
777,187,Wunstorf,Germany,E,\N,ETNW,9.42717,Wunstorf Air Base,52.457298,OurAirports,1,Europe/Berlin,airport
778,1353,Vilseck,Germany,E,\N,ETOI,11.767200469970703,Vilseck Army Air Field,49.63359832763672,OurAirports,1,Europe/Berlin,airport
779,309,Coleman,Germany,E,\N,ETOR,8.463390350341797,Coleman Army Air Field,49.5635986328125,OurAirports,1,Europe/Berlin,airport
780,461,Wiesbaden,Germany,E,WIE,ETOU,8.325400352478027,Wiesbaden Army Airfield,50.049800872802734,OurAirports,1,Europe/Berlin,airport
781,2044,Landsberg,Germany,E,\N,ETSA,10.906,Landsberg Lech Air Base,48.070599,OurAirports,1,Europe/Berlin,airport
782,1568,Buechel,Germany,E,\N,ETSB,7.06333017349,Büchel Air Base,50.1738014221,OurAirports,1,Europe/Berlin,airport
783,1515,Erding,Germany,E,\N,ETSE,11.948699951171875,Erding Airport,48.32229995727539,OurAirports,1,Europe/Berlin,airport
784,1703,Fuerstenfeldbruck,Germany,E,FEL,ETSF,11.266944,Fürstenfeldbruck Air Base,48.205555,OurAirports,1,Europe/Berlin,airport
785,265,Holzdorf,Germany,E,\N,ETSH,13.1677,Holzdorf Air Base,51.767799,OurAirports,1,Europe/Berlin,airport
786,1202,Ingolstadt,Germany,E,IGS,ETSI,11.534000396728516,Ingolstadt Manching Airport,48.7156982421875,OurAirports,1,Europe/Berlin,airport
787,1822,Lechfeld,Germany,E,\N,ETSL,10.8612,Lechfeld Air Base,48.185504,OurAirports,1,Europe/Berlin,airport
788,1249,Neuburg,Germany,E,\N,ETSN,11.2115,Neuburg AFB,48.710999,OurAirports,1,Europe/Berlin,airport
789,236,Guetersloh,Germany,E,GUT,ETUO,8.30633,Gütersloh Air Base,51.922798,OurAirports,1,Europe/Berlin,airport
790,98,Alexander Bay,South Africa,U,ALJ,FAAB,16.5333,Alexander Bay Airport,-28.575001,OurAirports,2,Africa/Johannesburg,airport
791,2648,Aggeneys,South Africa,U,AGZ,FAAG,18.813899993896484,Aggeneys Airport,-29.28179931640625,OurAirports,2,Africa/Johannesburg,airport
792,5300,Brakpan,South Africa,U,\N,FABB,28.301799774169922,Brakpan Airport,-26.23859977722168,OurAirports,2,Africa/Johannesburg,airport
793,1950,Bisho,South Africa,U,BIY,FABE,27.279100418099997,Bisho Airport,-32.8970985413,OurAirports,2,Africa/Johannesburg,airport
794,4458,Bloemfontein,South Africa,U,BFN,FABL,26.302400589,Bram Fischer International Airport,-29.092699050900002,OurAirports,2,Africa/Johannesburg,airport
795,5561,Bethlehem,South Africa,U,\N,FABM,28.3360996246,Bethlehem Airport,-28.2483997345,OurAirports,2,Africa/Johannesburg,airport
796,4236,Bothaville,South Africa,U,\N,FABO,26.629199981689453,Hendrik Potgieter Airport,-27.36680030822754,OurAirports,2,Africa/Johannesburg,airport
797,151,Cape Town,South Africa,U,CPT,FACT,18.6016998291,Cape Town International Airport,-33.9648017883,OurAirports,2,Africa/Johannesburg,airport
798,3250,Calvinia,South Africa,U,\N,FACV,19.725900650024414,Calvinia Airport,-31.50029945373535,OurAirports,2,Africa/Johannesburg,airport
799,295,Durban,South Africa,U,DUR,FALE,31.1197222222,King Shaka International Airport,-29.6144444444,OurAirports,2,Africa/Johannesburg,airport
800,435,East London,South Africa,U,ELS,FAEL,27.825899124099998,Ben Schoeman Airport,-33.0355987549,OurAirports,2,Africa/Johannesburg,airport
801,5700,Ermelo,South Africa,U,\N,FAEO,29.979799270629883,Ermelo Airport,-26.4955997467041,OurAirports,2,Africa/Johannesburg,airport
802,5315,Ficksburg,South Africa,U,FCB,FAFB,27.908899307250977,Ficksburg Sentraoes Airport,-28.82309913635254,OurAirports,2,Africa/Johannesburg,airport
803,5325,Johannesburg,South Africa,U,GCJ,FAGC,28.1401004791,Grand Central Airport,-25.986299514799995,OurAirports,2,Africa/Johannesburg,airport
